stop_id,stop_code,stop_name,stop_lat,stop_lon,location_type,parent_station,stop_timezone,wheelchair_boarding,platform_code,zone_id
GVB:00001,00001,"Amsterdam, Muiderpoortstation",52.361325,4.932872,0,stoparea:GVB:00001,,0,,
GVB:00005,00005,"Amsterdam, Muiderpoortstation",52.361217,4.9328,0,stoparea:GVB:00001,,1,,
GVB:00006,00006,"Amsterdam, Muiderpoortstation",52.361058,4.933682,0,stoparea:GVB:00001,,0,,
GVB:00007,00007,"Amsterdam, Muiderpoortstation",52.361175,4.933563,0,stoparea:GVB:00001,,1,,
GVB:00008,00008,"Amsterdam, Dapperstraat",52.361106,4.929776,0,stoparea:GVB:00008,,0,,
GVB:00010,00010,"Amsterdam, Dapperstraat",52.360923,4.928912,0,stoparea:GVB:00008,,0,,
GVB:00014,00014,"Amsterdam, Wijttenbachstraat",52.36027,4.925073,0,stoparea:GVB:00014,,0,,
GVB:00017,00017,"Amsterdam, Linnaeusstraat",52.360129,4.925735,0,stoparea:GVB:00014,,0,,
GVB:00018,00018,"Amsterdam, Diemerknoop",52.335374,5.002859,0,stoparea:GVB:00018,,0,,
GVB:00019,00019,"Amsterdam, Diemerknoop",52.335428,5.002961,0,stoparea:GVB:00018,,0,,
GVB:00020,00020,"Amsterdam, Beukenweg",52.35906,4.916747,0,stoparea:GVB:00020,,0,,
GVB:00021,00021,"Amsterdam, Beukenweg",52.358298,4.91721,0,stoparea:GVB:00020,,0,,
GVB:00023,00023,"Amsterdam, Beukenplein",52.357016,4.91809,0,stoparea:GVB:00023,,1,,
GVB:00024,00024,"Amsterdam, Beukenplein",52.35725,4.918073,0,stoparea:GVB:00023,,1,,
GVB:00029,00029,"Amsterdam, Pretoriusstraat",52.35707,4.92719,0,stoparea:GVB:00029,,0,,
GVB:00030,00030,"Amsterdam, Pretoriusstraat",52.357392,4.926938,0,stoparea:GVB:00029,,0,,
GVB:00039,00039,"Amsterdam, Hogeweg",52.353579,4.930837,0,stoparea:GVB:00039,,0,,
GVB:00040,00040,"Amsterdam, Hogeweg",52.353212,4.931355,0,stoparea:GVB:00039,,1,,
GVB:00041,00041,"Amsterdam, Maxwellstraat",52.348031,4.93019,0,stoparea:GVB:00041,,0,,
GVB:00044,00044,"Amsterdam, Fizeaustraat",52.345977,4.924326,0,stoparea:GVB:00044,,0,,
GVB:00046,00046,"Amsterdam, Fizeaustraat",52.345888,4.924635,0,stoparea:GVB:00044,,0,,
GVB:00048,00048,"Amsterdam, Lorentzlaan",52.345827,4.931974,0,stoparea:GVB:00048,,0,,
GVB:00049,00049,"Amsterdam, Lorentzlaan",52.346399,4.931308,0,stoparea:GVB:00048,,0,,
GVB:00051,00051,"Amsterdam, Maxwellstraat",52.345511,4.936526,0,stoparea:GVB:00051,,0,,
GVB:00052,00052,"Amsterdam, Maxwellstraat",52.345782,4.936773,0,stoparea:GVB:00051,,0,,
GVB:00053,00053,"Amsterdam, Kruislaan",52.34742,4.939677,0,stoparea:GVB:00053,,0,,
GVB:00054,00054,"Amsterdam, Kruislaan",52.347121,4.93899,0,stoparea:GVB:00053,,0,,
GVB:00055,00055,"Amsterdam, Linnaeusparkweg",52.348649,4.941543,0,stoparea:GVB:00055,,0,,
GVB:00059,00059,"Amsterdam, Radioweg",52.353369,4.939456,0,stoparea:GVB:00059,,0,,
GVB:00060,00060,"Amsterdam, Radioweg",52.353631,4.939791,0,stoparea:GVB:00059,,0,,
GVB:00061,00061,"Amsterdam, Archimedesweg",52.355742,4.939652,0,stoparea:GVB:00061,,0,,
GVB:00062,00062,"Amsterdam, Archimedesweg",52.355563,4.939874,0,stoparea:GVB:00061,,0,,
GVB:00065,00065,"Amsterdam, Hugo de Vrieslaan",52.351015,4.934871,0,stoparea:GVB:00065,,1,,
GVB:00066,00066,"Amsterdam, Hugo de Vrieslaan",52.350729,4.935402,0,stoparea:GVB:00065,,1,,
GVB:00070,00070,"Amsterdam, Kruislaan",52.347897,4.939936,0,stoparea:GVB:00053,,1,,
GVB:00071,00071,"Amsterdam, Kruislaan",52.347612,4.940453,0,stoparea:GVB:00053,,1,,
GVB:00074,00074,"Amsterdam, Brinkstraat",52.342849,4.94797,0,stoparea:GVB:00074,,1,,
GVB:00076,00076,"Amsterdam, Brinkstraat",52.343243,4.947423,0,stoparea:GVB:00074,,0,,
GVB:00079,00079,"Amsterdam, Zaaiersweg",52.339847,4.938403,0,stoparea:GVB:00079,,0,,
GVB:00080,00080,"Amsterdam, Zaaiersweg",52.339007,4.939483,0,stoparea:GVB:00079,,0,,
GVB:00113,00113,"Amsterdam, Dennenrode",52.321911,4.951243,0,stoparea:GVB:00113,,0,,
GVB:00114,00114,"Amsterdam, Dennenrode",52.322094,4.952136,0,stoparea:GVB:00113,,1,,
GVB:00117,00117,"Amsterdam, Station Ganzenhoef",52.322996,4.973219,0,stoparea:GVB:09546,,0,,
GVB:00118,00118,"Amsterdam, Echtenstein",52.324628,4.959518,0,stoparea:GVB:00118,,0,,
GVB:00119,00119,"Amsterdam, Echtenstein",52.324827,4.959722,0,stoparea:GVB:00118,,0,,
GVB:00124,00124,"Amsterdam, Geldershoofd",52.324957,4.970913,0,stoparea:GVB:00124,,0,,
GVB:00125,00125,"Amsterdam, Geldershoofd",52.325172,4.970881,0,stoparea:GVB:00124,,0,,
GVB:00126,00126,"Amsterdam, Grubbehoeve",52.323519,4.976265,0,stoparea:GVB:00126,,0,,
GVB:00127,00127,"Amsterdam, Grubbehoeve",52.323857,4.977656,0,stoparea:GVB:00126,,0,,
GVB:00128,00128,"Amsterdam, Geerdinkhof",52.32287,4.980775,0,stoparea:GVB:00128,,0,,
GVB:00129,00129,"Amsterdam, Geerdinkhof",52.323641,4.980254,0,stoparea:GVB:00128,,0,,
GVB:00134,00134,"Amsterdam, Koornhorst",52.31907,4.984007,0,stoparea:GVB:00134,,0,,
GVB:00135,00135,"Amsterdam, Koornhorst",52.319313,4.98396,0,stoparea:GVB:00134,,1,,
GVB:00141,00141,"Amsterdam, Kraaienneststation",52.316032,4.978681,0,stoparea:GVB:09548,,0,,
GVB:00144,00144,"Amsterdam, Kikkenstein",52.316801,4.972368,0,stoparea:GVB:00144,,0,,
GVB:00145,00145,"Amsterdam, Kikkenstein",52.316218,4.972711,0,stoparea:GVB:00144,,0,,
GVB:00146,00146,"Amsterdam, Gooioord",52.320483,4.969063,0,stoparea:GVB:00146,,0,,
GVB:00147,00147,"Amsterdam, Gooioord",52.319945,4.969361,0,stoparea:GVB:00146,,0,,
GVB:00150,00150,"Amsterdam, Tulastraat",52.31994,4.965357,0,stoparea:GVB:00150,,1,,
GVB:00151,00151,"Amsterdam, Tulastraat",52.319852,4.965842,0,stoparea:GVB:00150,,1,,
GVB:00152,00152,"Amsterdam, Florijn",52.317588,4.958589,0,stoparea:GVB:00152,,1,,
GVB:00153,00153,"Amsterdam, Florijn",52.31778,4.959716,0,stoparea:GVB:00152,,1,,
GVB:00157,00157,"Amsterdam, Dolingadreef",52.319249,4.948468,0,stoparea:GVB:00156,,0,,
GVB:00158,00158,"Amsterdam, Dolingadreef",52.318955,4.949013,0,stoparea:GVB:00158,,,,
GVB:00164,00164,"Amsterdam, Hofgeest",52.312546,4.958608,0,stoparea:GVB:00164,,0,,
GVB:00167,00167,"Amsterdam, Hogevecht",52.309475,4.959562,0,stoparea:GVB:00167,,1,,
GVB:00168,00168,"Amsterdam, Hogevecht",52.30945,4.959972,0,stoparea:GVB:00167,,1,,
GVB:00169,00169,"Amsterdam, Huigenbos",52.306666,4.960762,0,stoparea:GVB:00169,,1,,
GVB:00170,00170,"Amsterdam, Huigenbos",52.306891,4.960833,0,stoparea:GVB:00169,,1,,
GVB:00171,00171,"Amsterdam, Maasdrielhof",52.302205,4.964836,0,stoparea:GVB:00171,,0,,
GVB:00172,00172,"Amsterdam, Holendrechtplein",52.299524,4.964026,0,stoparea:GVB:00172,,1,,
GVB:00173,00173,"Amsterdam, Holendrechtplein",52.299107,4.963092,0,stoparea:GVB:00172,,1,,
GVB:00174,00174,"Amsterdam, Maasdrielhof",52.301803,4.965485,0,stoparea:GVB:00171,,1,,
GVB:00177,00177,"Amsterdam, Nelson Mandelapark",52.310948,4.964357,0,stoparea:GVB:00177,,1,,
GVB:00178,00178,"Amsterdam, Nelson Mandelapark",52.31101,4.964034,0,stoparea:GVB:00177,,1,,
GVB:00179,00179,"Amsterdam, Kelbergen",52.313509,4.971797,0,stoparea:GVB:00179,,1,,
GVB:00180,00180,"Amsterdam, Kelbergen",52.313544,4.97143,0,stoparea:GVB:00179,,1,,
GVB:00184,00184,"Amsterdam, Meernhof",52.299223,4.967841,0,stoparea:GVB:00184,,1,,
GVB:00185,00185,"Amsterdam, Meernhof",52.299715,4.967103,0,stoparea:GVB:00184,,0,,
GVB:00186,00186,"Amsterdam, Geinbrug",52.304426,5.013126,0,stoparea:GVB:00186,,0,,
GVB:00187,00187,"Amsterdam, Geinbrug",52.304479,5.012773,0,stoparea:GVB:00186,,0,,
GVB:00196,00196,"Amsterdam, Station Ganzenhoef",52.32282,4.974174,0,stoparea:GVB:09546,,0,,
GVB:00197,00197,"Amsterdam, Annie Romeinplein",52.321733,4.971618,0,stoparea:GVB:00197,,1,,
GVB:00198,00198,"Amsterdam, Annie Romeinplein",52.32143,4.969978,0,stoparea:GVB:00197,,1,,
GVB:00199,00199,"Amsterdam, Station Ganzenhoef",52.323087,4.973292,0,stoparea:GVB:09546,,0,,
GVB:00200,00200,"Amsterdam, Station Ganzenhoef",52.322976,4.975082,0,stoparea:GVB:09546,,0,,
GVB:00201,00201,"Amsterdam, Reigersbroeck",52.310552,5.000962,0,stoparea:GVB:00201,,0,,
GVB:00202,00202,"Amsterdam, Reigersbroeck",52.311331,4.999811,0,stoparea:GVB:00201,,0,,
GVB:00205,00205,"Amsterdam, Station Holendrecht",52.297168,4.958654,0,stoparea:GVB:09526,,1,A,
GVB:00206,00206,"Amsterdam, Rhenenhof",52.29808,4.970036,0,stoparea:GVB:00206,,1,,
GVB:00207,00207,"Amsterdam, Rhenenhof",52.298379,4.970825,0,stoparea:GVB:00206,,0,,
GVB:00209,00209,"Amsterdam, Hakfort",52.307987,4.955764,0,stoparea:GVB:00209,,1,,
GVB:00210,00210,"Amsterdam, Hakfort",52.308049,4.955411,0,stoparea:GVB:00209,,1,,
GVB:00211,00211,"Amsterdam, Station Holendrecht",52.29707,4.958889,0,stoparea:GVB:09526,,1,B,
GVB:00220,00220,"Amsterdam, Gaasp",52.314813,4.992947,0,stoparea:GVB:00220,,0,,
GVB:00221,00221,"Amsterdam, Gaasp",52.31437,4.992144,0,stoparea:GVB:00220,,0,,
GVB:00235,00235,"Amsterdam, Station Reigersbos",52.296323,4.973746,0,stoparea:GVB:09528,,0,,
GVB:00236,00236,"Amsterdam, Hofgeest",52.313333,4.957618,0,stoparea:GVB:00164,,0,,
GVB:00238,00238,"Amsterdam, Anton de Komplein",52.316034,4.954131,0,stoparea:GVB:00237,,1,,
GVB:00239,00239,"Amsterdam, Anton de Komplein",52.316527,4.955974,0,stoparea:GVB:00239,,1,,
GVB:00250,00250,"Diemen, Station Diemen Zuid",52.330811,4.956686,0,stoparea:GVB:09542,,1,,
GVB:00251,00251,"Diemen, Station Diemen Zuid",52.330928,4.956817,0,stoparea:GVB:09542,,1,,
GVB:00252,00252,"Diemen, Tarwekamp",52.332898,4.954876,0,stoparea:GVB:00252,,1,,
GVB:00253,00253,"Diemen, Tarwekamp",52.333122,4.954727,0,stoparea:GVB:00252,,0,,
GVB:00254,00254,"Diemen, Biesbosch",52.330736,4.94608,0,stoparea:GVB:00254,,0,,
GVB:00255,00255,"Diemen, Biesbosch",52.330262,4.944339,0,stoparea:GVB:00254,,,,
GVB:00256,00256,"Duivendrecht, Kruidenommegang",52.327933,4.939287,0,stoparea:GVB:00256,,1,,
GVB:00257,00257,"Duivendrecht, Kruidenommegang",52.328005,4.939389,0,stoparea:GVB:00256,,1,,
GVB:00258,00258,"Duivendrecht, Burg. van Damstraat",52.334143,4.941557,0,stoparea:GVB:00258,,1,,
GVB:00259,00259,"Duivendrecht, Burg. van Damstraat",52.334333,4.941746,0,stoparea:GVB:00258,,1,,
GVB:00261,00261,"Duivendrecht, Lunaweg",52.332229,4.93694,0,stoparea:GVB:00260,,0,,
GVB:00266,00266,"Duivendrecht, Korenbloemstraat",52.329697,4.939944,0,stoparea:GVB:00266,,1,,
GVB:00267,00267,"Duivendrecht, Korenbloemstraat",52.330021,4.940087,0,stoparea:GVB:00266,,1,,
GVB:00268,00268,"Duivendrecht, Astronautenweg",52.329873,4.934235,0,stoparea:GVB:00268,,0,,
GVB:00269,00269,"Duivendrecht, Astronautenweg",52.329911,4.934851,0,stoparea:GVB:00268,,0,,
GVB:00295,00295,"Amsterdam, Dalsteindreef",52.324826,4.94234,0,stoparea:GVB:00295,,0,,
GVB:00296,00296,"Amsterdam, Dalsteindreef",52.324808,4.942413,0,stoparea:GVB:00295,,0,,
GVB:00304,00304,"Amsterdam, Gaasperplas",52.31121,4.985104,0,stoparea:GVB:09550,,0,,
GVB:00305,00305,"Amsterdam, Leusdenhof",52.309812,4.978489,0,stoparea:GVB:00305,,0,,
GVB:00306,00306,"Amsterdam, Leusdenhof",52.309901,4.978371,0,stoparea:GVB:00305,,0,,
GVB:00307,00307,"Amsterdam, Leerdamhof",52.307405,4.974024,0,stoparea:GVB:00307,,0,,
GVB:00314,00314,"Amsterdam, Leerdamhof",52.305388,4.97526,0,stoparea:GVB:00307,,1,,
GVB:00315,00315,"Amsterdam, Gaasperplas",52.311254,4.985075,0,stoparea:GVB:09550,,0,,
GVB:00321,00321,"Amsterdam, Gaasperplas (uitstap)",52.310913,4.985136,0,stoparea:GVB:09550,,0,,
GVB:00322,00322,"Amsterdam, Gaasperplas",52.311147,4.985164,0,stoparea:GVB:09550,,0,,
GVB:00323,00323,"Amsterdam, Gaasperplas",52.311093,4.985193,0,stoparea:GVB:09550,,0,,
GVB:00330,00330,"Amsterdam, Middenweg",52.350447,4.934554,0,stoparea:GVB:00065,,0,,
GVB:00331,00331,"Amsterdam, Station Reigersbos",52.297373,4.973502,0,stoparea:GVB:09528,,1,,
GVB:00332,00332,"Amsterdam, Schoonhovendreef",52.293818,4.974488,0,stoparea:GVB:00332,,1,,
GVB:00333,00333,"Amsterdam, Schoonhovendreef",52.294025,4.974633,0,stoparea:GVB:00332,,1,,
GVB:00334,00334,"Amsterdam, Scherpenzeelstraat",52.292767,4.9774,0,stoparea:GVB:00334,,1,,
GVB:00335,00335,"Amsterdam, Scherpenzeelstraat",52.292874,4.977238,0,stoparea:GVB:00334,,1,,
GVB:00336,00336,"Amsterdam, Schaarsbergenstraat",52.292656,4.981578,0,stoparea:GVB:00336,,1,,
GVB:00337,00337,"Amsterdam, Schaarsbergenstraat",52.292754,4.981299,0,stoparea:GVB:00336,,1,,
GVB:00338,00338,"Amsterdam, Staverdenplein",52.292824,4.986018,0,stoparea:GVB:00338,,1,,
GVB:00339,00339,"Amsterdam, Staverdenplein",52.292895,4.985842,0,stoparea:GVB:00338,,1,,
GVB:00341,00341,"Amsterdam, Woudrichemstraat",52.294181,4.98882,0,stoparea:GVB:00340,,1,,
GVB:00343,00343,"Amsterdam, W. Gertenbachstraat",52.298631,4.989147,0,stoparea:GVB:00342,,1,,
GVB:00344,00344,"Amsterdam, W. Gertenbachstraat",52.298883,4.989291,0,stoparea:GVB:00344,,,,
GVB:00345,00345,"Amsterdam, Station Gein",52.296249,4.98911,0,stoparea:GVB:09530,,1,,
GVB:00346,00346,"Amsterdam, Station Gein",52.296439,4.989357,0,stoparea:GVB:09530,,1,,
GVB:00347,00347,"Amsterdam, Haardstee",52.311161,4.95104,0,stoparea:GVB:00347,,0,,
GVB:00348,00348,"Amsterdam, Haardstee",52.311045,4.951364,0,stoparea:GVB:00347,,0,,
GVB:00349,00349,"Amsterdam, Woudrichemstraat",52.294335,4.989054,0,stoparea:GVB:00349,,,,
GVB:00351,00351,"Amsterdam, Dostojevskisingel",52.322751,4.94525,0,stoparea:GVB:00351,,1,,
GVB:00352,00352,"Amsterdam, Dostojevskisingel",52.323144,4.944571,0,stoparea:GVB:00351,,1,,
GVB:00364,00364,"Diemen, Boven Rijkersloot",52.334624,4.954977,0,stoparea:GVB:00364,,1,,
GVB:00365,00365,"Diemen, Boven Rijkersloot",52.335012,4.955442,0,stoparea:GVB:00364,,1,,
GVB:00370,00370,"Duivendrecht, Plataanstraat",52.332442,4.941002,0,stoparea:GVB:00370,,1,,
GVB:00371,00371,"Duivendrecht, Plataanstraat",52.332388,4.941032,0,stoparea:GVB:00370,,1,,
GVB:00419,00419,"Amsterdam, Wamelstraat",52.301487,4.985911,0,stoparea:GVB:00419,,1,,
GVB:00420,00420,"Amsterdam, Wamelstraat",52.301576,4.985558,0,stoparea:GVB:00419,,1,,
GVB:00421,00421,"Amsterdam, Veenendaalplein",52.30147,4.980853,0,stoparea:GVB:00421,,1,,
GVB:00422,00422,"Amsterdam, Veenendaalplein",52.301559,4.980412,0,stoparea:GVB:00421,,1,,
GVB:00434,00434,"Amsterdam, Bijlmerplein",52.314573,4.950318,0,stoparea:GVB:00434,,0,,
GVB:00436,00436,"Duivendrecht, Industrieweg",52.335328,4.946093,0,stoparea:GVB:00436,,1,,
GVB:00437,00437,"Duivendrecht, Industrieweg",52.335739,4.9454,0,stoparea:GVB:00436,,1,,
GVB:00441,00441,"Amsterdam, Muiderpoortstation",52.360883,4.932539,0,stoparea:GVB:00441,,0,,
GVB:00442,00442,"Diemen, Beukenhorst",52.337591,4.960054,0,stoparea:GVB:00442,,1,,
GVB:00443,00443,"Diemen, Beukenhorst",52.337375,4.960056,0,stoparea:GVB:00442,,1,,
GVB:00444,00444,"Amsterdam, Linnaeusstraat",52.35991,4.9249,0,stoparea:GVB:00014,,0,,
GVB:00445,00445,"Diemen, Schoolstraat",52.338834,4.958325,0,stoparea:GVB:00445,,0,,
GVB:00446,00446,"Diemen, Schoolstraat",52.338674,4.958958,0,stoparea:GVB:00445,,0,,
GVB:00447,00447,"Diemen, Nic. Lublinkstraat",52.337556,4.965468,0,stoparea:GVB:00447,,0,,
GVB:00448,00448,"Diemen, Nic. Lublinkstraat",52.337423,4.966057,0,stoparea:GVB:00447,,0,,
GVB:00449,00449,"Diemen, Diemen (Sniep)",52.336432,4.970204,0,stoparea:GVB:00449,,0,,
GVB:00450,00450,"Diemen, Diemen (Sniep)",52.336734,4.969438,0,stoparea:GVB:00449,,0,,
GVB:00460,00460,"Diemen, Hogeschool InHolland",52.326951,4.960435,0,stoparea:GVB:00460,,1,,
GVB:00461,00461,"Diemen, Hogeschool InHolland",52.326753,4.960437,0,stoparea:GVB:00460,,1,,
GVB:00491,00491,"Amsterdam, Science Park Aer",52.354782,4.952182,0,stoparea:GVB:00491,,1,,
GVB:00492,00492,"Amsterdam, Science Park Aer",52.355207,4.952692,0,stoparea:GVB:00491,,1,,
GVB:00494,00494,"Amsterdam, Science Park Aqua",52.356012,4.954167,0,stoparea:GVB:00494,,1,,
GVB:00497,00497,"Amsterdam, Science Park Aqua",52.356084,4.954136,0,stoparea:GVB:00494,,1,,
GVB:00504,00504,"Diemen, Arent Krijtsstraat",52.339664,4.954355,0,stoparea:GVB:00504,,0,,
GVB:00505,00505,"Diemen, Arent Krijtsstraat",52.339566,4.954694,0,stoparea:GVB:00504,,0,,
GVB:00506,00506,"Amsterdam, Science Park Terra",52.354346,4.958307,0,stoparea:GVB:00506,,,,
GVB:00507,00507,"Amsterdam, Science Park Terra",52.354138,4.957722,0,stoparea:GVB:00507,,,,
GVB:00511,00511,"Duivendrecht, Station Duivendrecht",52.323142,4.936827,0,stoparea:GVB:09551,,1,,
GVB:00512,00512,"Amsterdam, Middenweg",52.350202,4.933896,0,stoparea:GVB:00065,,0,,
GVB:00514,00514,"Amsterdam, Eekholt",52.326825,4.965409,0,stoparea:GVB:00514,,1,,
GVB:00515,00515,"Duivendrecht, Station Duivendrecht",52.323187,4.936694,0,stoparea:GVB:09551,,1,,
GVB:00518,00518,"Amsterdam, Foppingadreef",52.312684,4.949676,0,stoparea:GVB:00517,,0,,
GVB:00525,00525,"Diemen, Provincialeweg",52.327656,4.9719,0,stoparea:GVB:00525,,0,,
GVB:00526,00526,"Diemen, Provincialeweg",52.327992,4.972703,0,stoparea:GVB:00525,,0,,
GVB:00528,00528,"Amsterdam, Eekholt",52.327199,4.967063,0,stoparea:GVB:00527,,1,,
GVB:00529,00529,"Amsterdam, Station Science Park",52.352304,4.947818,0,stoparea:GVB:00529,,1,,
GVB:00537,00537,"Amsterdam, Linnaeusparkweg",52.349247,4.942755,0,stoparea:GVB:00055,,0,,
GVB:00538,00538,"Amsterdam, Station Science Park",52.352395,4.948081,0,stoparea:GVB:00529,,1,,
GVB:00548,00548,"Amsterdam, Station Spaklerweg",52.337843,4.921975,0,stoparea:GVB:00548,,0,,
GVB:00549,00549,"Amsterdam, Station Spaklerweg",52.337752,4.921756,0,stoparea:GVB:00548,,0,,
GVB:00550,00550,"Duivendrecht, Joan Muyskenweg",52.329783,4.915708,0,stoparea:GVB:00550,,0,,
GVB:00551,00551,"Duivendrecht, Joan Muyskenweg",52.329397,4.915829,0,stoparea:GVB:00550,,0,,
GVB:00552,00552,"Amsterdam, Kraaienneststation",52.31686,4.981563,0,stoparea:GVB:09548,,1,,
GVB:00553,00553,"Amsterdam, Kraaienneststation",52.316012,4.980735,0,stoparea:GVB:09548,,0,,
GVB:00554,00554,"Amsterdam, Science Park",52.354472,4.950879,0,stoparea:GVB:00554,,0,,
GVB:00555,00555,"Amsterdam, Science Park",52.354857,4.950332,0,stoparea:GVB:00554,,0,,
GVB:00556,00556,"Amsterdam, C. Mac Gillavrylaan",52.357631,4.944697,0,stoparea:GVB:00556,,0,,
GVB:00557,00557,"Amsterdam, C. Mac Gillavrylaan",52.357719,4.944212,0,stoparea:GVB:00556,,0,,
GVB:00559,00559,"Amsterdam, Station Bijlmer ArenA",52.311211,4.947535,0,stoparea:GVB:09522,,1,F,
GVB:00560,00560,"Amsterdam, Station Bijlmer ArenA",52.311255,4.947476,0,stoparea:GVB:09522,,1,E,
GVB:00562,00562,"Amsterdam, Station Bijlmer ArenA",52.311381,4.947357,0,stoparea:GVB:09522,,0,C,
GVB:00563,00563,"Amsterdam, Station Bijlmer ArenA",52.311417,4.947313,0,stoparea:GVB:09522,,1,B,
GVB:00570,00570,"Amsterdam, Stationsweg",52.324173,4.931404,0,stoparea:GVB:00570,,1,,
GVB:00571,00571,"Amsterdam, Stationsweg",52.324244,4.93111,0,stoparea:GVB:00570,,1,,
GVB:00573,00573,"Amsterdam, H.J.E. Wenckebachweg",52.341221,4.919372,0,stoparea:GVB:00573,,0,,
GVB:00574,00574,"Amsterdam, H.J.E. Wenckebachweg",52.341284,4.919562,0,stoparea:GVB:00573,,0,,
GVB:00578,00578,"Amsterdam, De Flinesstraat",52.327453,4.92672,0,stoparea:GVB:00578,,,,
GVB:00579,00579,"Amsterdam, De Flinesstraat",52.327641,4.926468,0,stoparea:GVB:00579,,,,
GVB:00601,00601,"Weesp, Van Houtenlaan",52.303816,5.037117,0,stoparea:GVB:00601,,1,,
GVB:00602,00602,"Weesp, Van Houtenlaan",52.303762,5.036898,0,stoparea:GVB:00602,,1,,
GVB:00603,00603,"Weesp, V. Houten Ind.park",52.306482,5.035806,0,stoparea:GVB:00603,,0,,
GVB:00604,00604,"Weesp, V. Houten Ind.park",52.306427,5.035645,0,stoparea:GVB:00604,,0,,
GVB:00651,00651,"Weesp, Casparuslaan",52.309114,5.035316,0,stoparea:GVB:00651,,1,,
GVB:00652,00652,"Weesp, Casparuslaan",52.309239,5.035168,0,stoparea:GVB:00652,,1,,
GVB:00653,00653,"Weesp, Winkelcentrum",52.310257,5.032931,0,stoparea:GVB:00653,,0,,
GVB:00655,00655,"Weesp, Sinnigvelderstraat",52.310271,5.028723,0,stoparea:GVB:00655,,0,,
GVB:00665,00665,"Weesp, Station Weesp",52.311448,5.043832,0,stoparea:GVB:00665,,1,,
GVB:00675,00675,"Weesp, J.H.Leopoldhof",52.31219,5.03906,0,stoparea:GVB:00675,,0,,
GVB:00678,00678,"Weesp, J.H.Leopoldhof",52.312306,5.038927,0,stoparea:GVB:00678,,1,,
GVB:00901,00901,"Diemen, Stammerkamp",52.333339,4.982923,0,stoparea:GVB:00901,,0,,
GVB:00902,00902,"Diemen, Stammerkamp",52.333206,4.983438,0,stoparea:GVB:00901,,0,,
GVB:00966,00966,"Diemen, Tureluurweg",52.350682,4.979316,0,stoparea:GVB:00966,,0,,
GVB:00967,00967,"Diemen, Landlust",52.347635,4.971595,0,stoparea:GVB:00967,,0,,
GVB:00970,00970,"Diemen, Diemen Noord",52.346974,4.985911,0,stoparea:GVB:00970,,0,,
GVB:00971,00971,"Diemen, Rietzangerweg",52.350843,4.973826,0,stoparea:GVB:00971,,0,,
GVB:00972,00972,"Diemen, Oude Waelweg",52.351273,4.971062,0,stoparea:GVB:00972,,0,,
GVB:00973,00973,"Diemen, Vogelweg",52.349152,4.973563,0,stoparea:GVB:00973,,0,,
GVB:00974,00974,"Diemen, Buytenweg",52.349141,4.970466,0,stoparea:GVB:00974,,0,,
GVB:00975,00975,"Diemen, Station Diemen",52.344942,4.967424,0,stoparea:GVB:00975,,1,,
GVB:00976,00976,"Diemen, Klipperweg",52.34878,4.982886,0,stoparea:GVB:00976,,0,,
GVB:00977,00977,"Diemen, Klipperweg",52.348994,4.982561,0,stoparea:GVB:00976,,0,,
GVB:00978,00978,"Diemen, Tureluurweg",52.350861,4.979036,0,stoparea:GVB:00966,,0,,
GVB:00979,00979,"Diemen, Meerkoet",52.352173,4.976352,0,stoparea:GVB:00979,,0,,
GVB:00980,00980,"Diemen, Zeezigt",52.35262,4.975805,0,stoparea:GVB:00980,,0,,
GVB:00985,00985,"Diemen, Winkelcentrum",52.341866,4.964224,0,stoparea:GVB:00985,,1,,
GVB:00986,00986,"Diemen, Prins Bernhardlaan",52.338051,4.968134,0,stoparea:GVB:00986,,1,,
GVB:00989,00989,"Diemen, Martin L.Kinglaan",52.343183,4.965635,0,stoparea:GVB:00989,,0,,
GVB:00990,00990,"Diemen, Martin L.Kinglaan",52.343074,4.965269,0,stoparea:GVB:00989,,0,,
GVB:00991,00991,"Diemen, Station Diemen",52.345492,4.967844,0,stoparea:GVB:00975,,1,,
GVB:00992,00992,"Diemen, Pr. Beatrixlaan",52.339883,4.967706,0,stoparea:GVB:00992,,1,,
GVB:00994,00994,"Diemen, Burg. Bickerstraat",52.341151,4.962778,0,stoparea:GVB:00985,,1,,
GVB:00998,00998,"Diemen, Vinkenbrug",52.333711,4.978783,0,stoparea:GVB:00998,,0,,
GVB:00999,00999,"Diemen, Vinkenbrug",52.333701,4.978313,0,stoparea:GVB:00998,,0,,
GVB:01001,01001,"Amsterdam, Hilversumstraat",52.390254,4.958841,0,stoparea:GVB:01001,,0,,
GVB:01002,01002,"Amsterdam, Hilversumstraat",52.389733,4.958979,0,stoparea:GVB:01001,,0,,
GVB:01004,01004,"Amsterdam, Volendammerweg",52.391688,4.957564,0,stoparea:GVB:01004,,1,,
GVB:01005,01005,"Amsterdam, Volendammerweg",52.39306,4.956802,0,stoparea:GVB:01005,,1,,
GVB:01006,01006,"Amsterdam, Purmerweg",52.390027,4.948472,0,stoparea:GVB:01006,,0,,
GVB:01007,01007,"Amsterdam, Purmerweg",52.389992,4.948708,0,stoparea:GVB:01006,,0,,
GVB:01008,01008,"Amsterdam, Wognumerplantsoen",52.387622,4.949392,0,stoparea:GVB:01008,,0,,
GVB:01009,01009,"Amsterdam, Wognumerplantsoen",52.387389,4.949586,0,stoparea:GVB:01008,,0,,
GVB:01010,01010,"Amsterdam, Schellingw.dijk 83",52.386354,4.953958,0,stoparea:GVB:01010,,0,,
GVB:01011,01011,"Amsterdam, Schellingw.dijk 83",52.386425,4.953796,0,stoparea:GVB:01010,,0,,
GVB:01012,01012,"Amsterdam, Schellingw.dijk 175",52.385723,4.958503,0,stoparea:GVB:01012,,0,,
GVB:01013,01013,"Amsterdam, Schellingw.dijk 175",52.385643,4.958798,0,stoparea:GVB:01012,,0,,
GVB:01014,01014,"Amsterdam, IJdijk",52.383888,4.963118,0,stoparea:GVB:01014,,0,,
GVB:01015,01015,"Amsterdam, IJdijk",52.384085,4.962735,0,stoparea:GVB:01014,,0,,
GVB:01016,01016,"Amsterdam, Liergouw",52.381769,4.966252,0,stoparea:GVB:01016,,0,,
GVB:01017,01017,"Amsterdam, Liergouw",52.381886,4.966163,0,stoparea:GVB:01016,,0,,
GVB:01018,01018,"Amsterdam, Volkstuin",52.379435,4.974455,0,stoparea:GVB:01018,,0,,
GVB:01019,01019,"Amsterdam, Volkstuin",52.379757,4.974041,0,stoparea:GVB:01018,,0,,
GVB:01020,01020,"Amsterdam, Durgerd.dijk 4",52.376311,4.978156,0,stoparea:GVB:01020,,0,,
GVB:01021,01021,"Amsterdam, Durgerd.dijk 4",52.376123,4.978495,0,stoparea:GVB:01020,,0,,
GVB:01022,01022,"Amsterdam, Durgerd.dijk 36",52.375799,4.986149,0,stoparea:GVB:01022,,0,,
GVB:01023,01023,"Durgerdam, Durgerd.dijk 36",52.375907,4.986251,0,stoparea:GVB:01022,,0,,
GVB:01024,01024,"Durgerdam, Durgerd.dijk 82",52.377452,4.988807,0,stoparea:GVB:01024,,0,,
GVB:01025,01025,"Durgerdam, Durgerd.dijk 82",52.37728,4.988427,0,stoparea:GVB:01024,,0,,
GVB:01026,01026,"Durgerdam, Kabelhuisje",52.377865,4.991212,0,stoparea:GVB:01026,,0,,
GVB:01027,01027,"Durgerdam, Kabelhuisje",52.378191,4.991958,0,stoparea:GVB:01026,,0,,
GVB:01028,01028,"Durgerdam, Durgerd.dijk 175",52.379574,4.996924,0,stoparea:GVB:01028,,0,,
GVB:01029,01029,"Durgerdam, Durgerd.dijk 175",52.379983,4.998287,0,stoparea:GVB:01028,,0,,
GVB:01030,01030,"Durgerdam, Uitdammerdijk",52.381146,5.002183,0,stoparea:GVB:01030,,0,,
GVB:01031,01031,"Durgerdam, Uitdammerdijk",52.380991,5.001744,0,stoparea:GVB:01030,,0,,
GVB:01032,01032,"Durgerdam, Durgerd. gouw 37",52.384777,5.002387,0,stoparea:GVB:01032,,0,,
GVB:01033,01033,"Durgerdam, Durgerd. gouw 37",52.384732,5.002402,0,stoparea:GVB:01032,,0,,
GVB:01034,01034,"Ransdorp, Durgerd.gouw 20",52.387708,5.002684,0,stoparea:GVB:01034,,0,,
GVB:01035,01035,"Ransdorp, Durgerd.gouw 20",52.387717,5.002699,0,stoparea:GVB:01034,,0,,
GVB:01036,01036,"Ransdorp, Dorpsweg",52.390778,4.995988,0,stoparea:GVB:01036,,0,,
GVB:01037,01037,"Ransdorp, Dorpsweg",52.390824,4.996282,0,stoparea:GVB:01036,,0,,
GVB:01038,01038,"Ransdorp, Ransdorp (kerk)",52.393181,4.994175,0,stoparea:GVB:01038,,0,,
GVB:01039,01039,"Ransdorp, Ransdorp (kerk)",52.393253,4.994189,0,stoparea:GVB:01038,,0,,
GVB:01040,01040,"Ransdorp, Nieuwe Gouw",52.395882,4.995723,0,stoparea:GVB:01040,,0,,
GVB:01041,01041,"Ransdorp, Nieuwe Gouw",52.395827,4.995474,0,stoparea:GVB:01040,,0,,
GVB:01042,01042,"Ransdorp, Bloemend.gouw 42",52.396405,5.004343,0,stoparea:GVB:01042,,0,,
GVB:01043,01043,"Ransdorp, Bloemend.gouw 42",52.39616,5.006505,0,stoparea:GVB:01042,,0,,
GVB:01044,01044,"Ransdorp, Kinselmeer",52.39602,5.010443,0,stoparea:GVB:01044,,0,,
GVB:01045,01045,"Ransdorp, Kinselmeer",52.396083,5.010575,0,stoparea:GVB:01044,,0,,
GVB:01046,01046,"Amsterdam, Bloemend.gouw 69",52.403324,5.018096,0,stoparea:GVB:01046,,0,,
GVB:01047,01047,"Amsterdam, Bloemend.gouw 69",52.403215,5.017906,0,stoparea:GVB:01046,,0,,
GVB:01048,01048,"Amsterdam, Blijkmeer",52.408899,5.02478,0,stoparea:GVB:01048,,0,,
GVB:01049,01049,"Amsterdam, Blijkmeer",52.408953,5.024794,0,stoparea:GVB:01048,,0,,
GVB:01050,01050,"Holysloot, Bloemend.gouw 38",52.413323,5.02567,0,stoparea:GVB:01050,,0,,
GVB:01051,01051,"Holysloot, Bloemend.gouw 38",52.413251,5.025626,0,stoparea:GVB:01050,,0,,
GVB:01052,01052,"Holysloot, Holysloot",52.413205,5.025068,0,stoparea:GVB:01052,,0,,
GVB:01053,01053,"Amsterdam, Buikslotermeerplein",52.400177,4.934883,0,stoparea:GVB:01053,,0,,
GVB:01058,01058,"Amsterdam, Purmerplein",52.390782,4.945865,0,stoparea:GVB:01058,,1,,
GVB:01059,01059,"Amsterdam, Purmerplein",52.390458,4.945692,0,stoparea:GVB:01058,,1,,
GVB:01060,01060,"Amsterdam, Wervershoofstraat",52.392496,4.940383,0,stoparea:GVB:01060,,0,,
GVB:01061,01061,"Amsterdam, Wervershoofstraat",52.392708,4.939543,0,stoparea:GVB:01060,,0,,
GVB:01062,01062,"Amsterdam, Nieuwe Purmerweg",52.394485,4.934133,0,stoparea:GVB:01062,,0,,
GVB:01063,01063,"Amsterdam, Nieuwe Purmerweg",52.394181,4.934504,0,stoparea:GVB:01062,,0,,
GVB:01064,01064,"Amsterdam, Het Breed",52.398299,4.932434,0,stoparea:GVB:01064,,0,,
GVB:01065,01065,"Amsterdam, Het Breed",52.39809,4.931893,0,stoparea:GVB:01064,,0,,
GVB:01066,01066,"Amsterdam, Olof Palmeplein",52.396835,4.939942,0,stoparea:GVB:01066,,0,,
GVB:01067,01067,"Amsterdam, Ilperveldstraat",52.395037,4.944647,0,stoparea:GVB:01067,,1,,
GVB:01068,01068,"Amsterdam, Ilperveldstraat",52.394958,4.945162,0,stoparea:GVB:01067,,0,,
GVB:01069,01069,"Amsterdam, De Egmondenstraat",52.393608,4.94948,0,stoparea:GVB:01069,,0,,
GVB:01070,01070,"Amsterdam, De Egmondenstraat",52.394088,4.948094,0,stoparea:GVB:01069,,0,,
GVB:01071,01071,"Amsterdam, Waterlandplein",52.391836,4.953934,0,stoparea:GVB:01071,,1,,
GVB:01076,01076,"Amsterdam, Waterlandplein",52.392738,4.952471,0,stoparea:GVB:01071,,1,,
GVB:01077,01077,"Amsterdam, Dijkmanshuizenstraat",52.396269,4.954405,0,stoparea:GVB:01077,,1,,
GVB:01078,01078,"Amsterdam, Dijkmanshuizenstraat",52.395497,4.954751,0,stoparea:GVB:01077,,0,,
GVB:01079,01079,"Amsterdam, Beemsterstraat",52.397743,4.951937,0,stoparea:GVB:01079,,0,,
GVB:01080,01080,"Amsterdam, Markengouw",52.399211,4.952981,0,stoparea:GVB:01080,,0,,
GVB:01081,01081,"Amsterdam, Markengouw",52.399212,4.953098,0,stoparea:GVB:01080,,0,,
GVB:01082,01082,"Amsterdam, Zunderdorpergouw",52.403896,4.96084,0,stoparea:GVB:01082,,0,,
GVB:01083,01083,"Amsterdam, Zunderdorpergouw",52.40459,4.961495,0,stoparea:GVB:01082,,0,,
GVB:01084,01084,"Amsterdam, Kerklaan",52.407297,4.964482,0,stoparea:GVB:01084,,0,,
GVB:01085,01085,"Amsterdam, Kerklaan",52.407333,4.964467,0,stoparea:GVB:01084,,0,,
GVB:01086,01086,"Amsterdam, 't Nopeind",52.409788,4.964943,0,stoparea:GVB:01086,,0,,
GVB:01087,01087,"Amsterdam, 't Nopeind",52.409948,4.9645,0,stoparea:GVB:01086,,0,,
GVB:01088,01088,"Amsterdam, Zunderdorp",52.410057,4.962074,0,stoparea:GVB:01088,,0,,
GVB:01089,01089,"Amsterdam, Buikslotermeerdijk",52.401383,4.957088,0,stoparea:GVB:01089,,0,,
GVB:01090,01090,"Amsterdam, Buikslotermeerdijk",52.401348,4.957162,0,stoparea:GVB:01089,,0,,
GVB:01091,01091,"Amsterdam, Beemsterstraat",52.397596,4.951057,0,stoparea:GVB:01079,,0,,
GVB:01092,01092,"Amsterdam, Th. Weeversweg",52.398254,4.94438,0,stoparea:GVB:01092,,0,,
GVB:01093,01093,"Amsterdam, Th. Weeversweg",52.398218,4.944498,0,stoparea:GVB:01092,,0,,
GVB:01096,01096,"Amsterdam, Buikslotermeerplein",52.399834,4.934431,0,stoparea:GVB:01053,,0,,
GVB:01097,01097,"Amsterdam, Buikslotermeerplein",52.400013,4.934327,0,stoparea:GVB:01053,,0,,
GVB:01098,01098,"Amsterdam, Buikslotermeerplein",52.399952,4.934592,0,stoparea:GVB:01053,,0,,
GVB:01099,01099,"Amsterdam, Buikslotermeerplein",52.399788,4.93405,0,stoparea:GVB:01053,,0,,
GVB:01100,01100,"Amsterdam, Bakkerswaal",52.40239,4.937594,0,stoparea:GVB:01100,,1,,
GVB:01101,01101,"Amsterdam, Bakkerswaal",52.402227,4.937287,0,stoparea:GVB:01100,,1,,
GVB:01103,01103,"Amsterdam, Amerbos",52.403402,4.941404,0,stoparea:GVB:01103,,0,,
GVB:01104,01104,"Amsterdam, Amerbos",52.40301,4.942554,0,stoparea:GVB:01103,,0,,
GVB:01106,01106,"Amsterdam, Spelderholt",52.401273,4.944232,0,stoparea:GVB:01106,,1,,
GVB:01107,01107,"Amsterdam, Spelderholt",52.401093,4.94419,0,stoparea:GVB:01106,,1,,
GVB:01108,01108,"Amsterdam, J. Drijverweg",52.399431,4.944368,0,stoparea:GVB:01108,,1,,
GVB:01109,01109,"Amsterdam, J. Drijverweg",52.399646,4.944204,0,stoparea:GVB:01108,,0,,
GVB:01110,01110,"Amsterdam, Rode Kruisstraat",52.394553,4.928476,0,stoparea:GVB:01110,,1,,
GVB:01111,01111,"Amsterdam, Rode Kruisstraat",52.394878,4.928811,0,stoparea:GVB:01110,,1,,
GVB:01112,01112,"Amsterdam, Waddenweg",52.392633,4.926954,0,stoparea:GVB:01112,,0,,
GVB:01116,01116,"Amsterdam, Merelstraat",52.389866,4.924926,0,stoparea:GVB:01114,,1,,
GVB:01117,01117,"Amsterdam, Merelstraat",52.389956,4.925057,0,stoparea:GVB:01114,,1,,
GVB:01119,01119,"Amsterdam, Hamerstraat",52.386262,4.922672,0,stoparea:GVB:01119,,0,,
GVB:01121,01121,"Amsterdam, Hamerstraat",52.386004,4.921,0,stoparea:GVB:01119,,0,,
GVB:01122,01122,"Amsterdam, Havikslaan",52.385319,4.91829,0,stoparea:GVB:01122,,0,,
GVB:01123,01123,"Amsterdam, Havikslaan",52.385029,4.917603,0,stoparea:GVB:01122,,0,,
GVB:01124,01124,"Amsterdam, Valkenweg",52.383097,4.913275,0,stoparea:GVB:01124,,0,,
GVB:01125,01125,"Amsterdam, Valkenweg",52.383045,4.913775,0,stoparea:GVB:01124,,0,,
GVB:01126,01126,"Amsterdam, Spreeuwenpark",52.384512,4.914127,0,stoparea:GVB:01126,,0,,
GVB:01127,01127,"Amsterdam, Spreeuwenpark",52.385204,4.914296,0,stoparea:GVB:01126,,0,,
GVB:01130,01130,"Amsterdam, Hagedoornplein",52.38806,4.913619,0,stoparea:GVB:01130,,0,,
GVB:01131,01131,"Amsterdam, Hagedoornplein",52.388014,4.913473,0,stoparea:GVB:01130,,1,,
GVB:01138,01138,"Amsterdam, Grasweg",52.388421,4.905036,0,stoparea:GVB:01138,,,,
GVB:01139,01139,"Amsterdam, Grasweg",52.388556,4.905079,0,stoparea:GVB:01139,,,,
GVB:01151,01151,"Amsterdam, Mosplein",52.393571,4.914074,0,stoparea:GVB:01149,,1,,
GVB:01155,01155,"Amsterdam, Mosplein",52.393003,4.913581,0,stoparea:GVB:01149,,1,,
GVB:01156,01156,"Amsterdam, Sneeuwbalstraat",52.39633,4.913957,0,stoparea:GVB:01156,,1,,
GVB:01158,01158,"Amsterdam, Sneeuwbalstraat",52.396384,4.914132,0,stoparea:GVB:01156,,0,,
GVB:01161,01161,"Amsterdam, Eeuwige Jeugdlaan",52.405855,4.934208,0,stoparea:GVB:01161,,0,,
GVB:01166,01166,"Amsterdam, Barkpad",52.402621,4.911744,0,stoparea:GVB:01166,,1,,
GVB:01167,01167,"Amsterdam, Tjalkstraat",52.404924,4.910074,0,stoparea:GVB:01167,,1,,
GVB:01168,01168,"Amsterdam, Tjalkstraat",52.40572,4.911167,0,stoparea:GVB:01167,,1,,
GVB:01171,01171,"Amsterdam, Voordek",52.410488,4.916774,0,stoparea:GVB:01171,,0,,
GVB:01172,01172,"Amsterdam, Voordek",52.411002,4.91743,0,stoparea:GVB:01171,,0,,
GVB:01173,01173,"Amsterdam, Tussendek",52.412528,4.919237,0,stoparea:GVB:01173,,1,,
GVB:01174,01174,"Amsterdam, Tussendek",52.413133,4.919965,0,stoparea:GVB:01173,,1,,
GVB:01175,01175,"Amsterdam, Staghof",52.413701,4.922531,0,stoparea:GVB:01175,,0,,
GVB:01176,01176,"Amsterdam, Staghof",52.413406,4.922946,0,stoparea:GVB:01175,,0,,
GVB:01177,01177,"Amsterdam, Masthof",52.412239,4.925574,0,stoparea:GVB:01177,,1,,
GVB:01178,01178,"Amsterdam, Masthof",52.411944,4.926004,0,stoparea:GVB:01177,,1,,
GVB:01179,01179,"Amsterdam, Grootzeil",52.408782,4.924273,0,stoparea:GVB:01179,,0,,
GVB:01180,01180,"Amsterdam, Grootzeil",52.408185,4.923162,0,stoparea:GVB:01179,,1,,
GVB:01184,01184,"Amsterdam, Koopvaardersplantsoen",52.406733,4.915198,0,stoparea:GVB:01184,,0,,
GVB:01185,01185,"Amsterdam, Koopvaardersplantsoen",52.406225,4.916129,0,stoparea:GVB:01184,,0,,
GVB:01188,01188,"Amsterdam, Barkpad",52.402683,4.911479,0,stoparea:GVB:01166,,1,,
GVB:01189,01189,"Amsterdam, Pinksterbloemstraat",52.398525,4.912214,0,stoparea:GVB:01189,,1,,
GVB:01191,01191,"Amsterdam, Pinksterbloemstraat",52.398812,4.912035,0,stoparea:GVB:01189,,1,,
GVB:01193,01193,"Amsterdam, Slijperweg",52.399297,4.907534,0,stoparea:GVB:01193,,0,,
GVB:01194,01194,"Amsterdam, Slijperweg",52.399216,4.907681,0,stoparea:GVB:01193,,0,,
GVB:01197,01197,"Amsterdam, Draaierweg",52.400097,4.903278,0,stoparea:GVB:01197,,0,,
GVB:01198,01198,"Amsterdam, Draaierweg",52.40047,4.902202,0,stoparea:GVB:01197,,0,,
GVB:01203,01203,"Amsterdam, Meteorensingel",52.410214,4.891572,0,stoparea:GVB:01203,,1,,
GVB:01204,01204,"Amsterdam, Meteorensingel",52.410329,4.891071,0,stoparea:GVB:01203,,1,,
GVB:01205,01205,"Amsterdam, Maanstraat",52.412147,4.887347,0,stoparea:GVB:01205,,0,,
GVB:01206,01206,"Amsterdam, Maanstraat",52.412225,4.886832,0,stoparea:GVB:01205,,0,,
GVB:01208,01208,"Amsterdam, Meteorenweg",52.414791,4.881394,0,stoparea:GVB:01208,,1,,
GVB:01209,01209,"Amsterdam, Meteorenweg",52.414718,4.881306,0,stoparea:GVB:01208,,1,,
GVB:01210,01210,"Amsterdam, Kometensingel",52.416521,4.882623,0,stoparea:GVB:01210,,1,,
GVB:01211,01211,"Amsterdam, Kometensingel",52.41663,4.882843,0,stoparea:GVB:01210,,1,,
GVB:01212,01212,"Amsterdam, Oostzanerdijk",52.420238,4.881493,0,stoparea:GVB:01212,,1,,
GVB:01213,01213,"Amsterdam, Oostzanerdijk",52.42037,4.88083,0,stoparea:GVB:01212,,1,,
GVB:01214,01214,"Amsterdam, Bovenkruier",52.420114,4.884052,0,stoparea:GVB:01214,,0,,
GVB:01215,01215,"Amsterdam, Bovenkruier",52.420285,4.884139,0,stoparea:GVB:01214,,0,,
GVB:01216,01216,"Amsterdam, Petmolen",52.4179,4.885518,0,stoparea:GVB:01216,,1,,
GVB:01219,01219,"Amsterdam, Petmolen",52.417193,4.886232,0,stoparea:GVB:01216,,1,,
GVB:01222,01222,"Amsterdam, Standerdmolen",52.416202,4.892181,0,stoparea:GVB:01222,,1,,
GVB:01223,01223,"Amsterdam, Standerdmolen",52.416306,4.893268,0,stoparea:GVB:01222,,1,,
GVB:01224,01224,"Amsterdam, Appelweg",52.415552,4.895613,0,stoparea:GVB:01224,,0,,
GVB:01225,01225,"Amsterdam, Appelweg",52.415802,4.895405,0,stoparea:GVB:01224,,0,,
GVB:01226,01226,"Amsterdam, Druivenstraat",52.412742,4.898702,0,stoparea:GVB:01226,,0,,
GVB:01227,01227,"Amsterdam, Druivenstraat",52.412326,4.898104,0,stoparea:GVB:01226,,0,,
GVB:01228,01228,"Amsterdam, Ananasplein",52.41032,4.895554,0,stoparea:GVB:01228,,0,,
GVB:01229,01229,"Amsterdam, Ananasplein",52.410691,4.896108,0,stoparea:GVB:01228,,0,,
GVB:01237,01237,"Amsterdam, Beemsterstraat",52.397123,4.952105,0,stoparea:GVB:01079,,0,,
GVB:01275,01275,"Amsterdam, Banne Buikslootlaan",52.408153,4.917416,0,stoparea:GVB:01275,,,,
GVB:01277,01277,"Amsterdam, Statenjachtstraat",52.407905,4.913642,0,stoparea:GVB:01277,,1,,
GVB:01278,01278,"Amsterdam, Statenjachtstraat",52.407905,4.913804,0,stoparea:GVB:01277,,1,,
GVB:01324,01324,"Amsterdam, Volkstuin",52.387151,4.968214,0,stoparea:GVB:01324,,1,,
GVB:01325,01325,"Amsterdam, Volkstuin",52.386775,4.968717,0,stoparea:GVB:01324,,0,,
GVB:01326,01326,"Amsterdam, Bloemend.gouw 51",52.39605,5.008695,0,stoparea:GVB:01326,,0,,
GVB:01327,01327,"Amsterdam, Bloemend.gouw 51",52.396059,5.008621,0,stoparea:GVB:01326,,0,,
GVB:01328,01328,"Amsterdam, Het Breed",52.397724,4.937333,0,stoparea:GVB:01328,,0,,
GVB:01337,01337,"Amsterdam, Dorpsweg 38",52.391754,4.994907,0,stoparea:GVB:01337,,0,,
GVB:01338,01338,"Amsterdam, Dorpsweg 38",52.392436,4.994505,0,stoparea:GVB:01337,,1,,
GVB:01339,01339,"Amsterdam, G.J. Scheurleerweg",52.403912,4.929114,0,stoparea:GVB:01339,,1,,
GVB:01340,01340,"Amsterdam, G.J. Scheurleerweg",52.403732,4.929146,0,stoparea:GVB:01339,,1,,
GVB:01346,01346,"Amsterdam, Nageljongenstraat",52.40824,4.898942,0,stoparea:GVB:01346,,1,,
GVB:01347,01347,"Amsterdam, Nageljongenstraat",52.408154,4.899781,0,stoparea:GVB:01346,,1,,
GVB:01351,01351,"Amsterdam, Oosterlengte",52.405827,4.92232,0,stoparea:GVB:01351,,0,,
GVB:01352,01352,"Amsterdam, Oosterlengte",52.406113,4.922067,0,stoparea:GVB:01351,,0,,
GVB:01353,01353,"Amsterdam, BovenIJ ziekenhuis",52.405386,4.920017,0,stoparea:GVB:01353,,0,,
GVB:01354,01354,"Amsterdam, BovenIJ ziekenhuis",52.405701,4.920102,0,stoparea:GVB:01353,,0,,
GVB:01358,01358,"Amsterdam, Durgerd.dijk 143",52.378927,4.994375,0,stoparea:GVB:01358,,0,,
GVB:01359,01359,"Amsterdam, Molenwijk",52.418069,4.893616,0,stoparea:GVB:01359,,0,,
GVB:01361,01361,"Amsterdam, Molenwijk",52.418024,4.893631,0,stoparea:GVB:01359,,0,,
GVB:01362,01362,"Amsterdam, Molenwijk",52.41797,4.893646,0,stoparea:GVB:01359,,0,,
GVB:01363,01363,"Amsterdam, Hildsven",52.399432,4.939681,0,stoparea:GVB:01363,,0,,
GVB:01364,01364,"Amsterdam, Hildsven",52.399923,4.938868,0,stoparea:GVB:01363,,0,,
GVB:01365,01365,"Amsterdam, Atatürk",52.403194,4.89794,0,stoparea:GVB:01365,,0,,
GVB:01366,01366,"Amsterdam, Atatürk",52.403274,4.897763,0,stoparea:GVB:01365,,0,,
GVB:01367,01367,"Amsterdam, Tuigerstraat",52.406374,4.899624,0,stoparea:GVB:01367,,0,,
GVB:01368,01368,"Amsterdam, Tuigerstraat",52.406193,4.899406,0,stoparea:GVB:01367,,0,,
GVB:01369,01369,"Amsterdam, Pomonastraat",52.408864,4.895467,0,stoparea:GVB:01369,,1,,
GVB:01370,01370,"Amsterdam, Pomonastraat",52.408828,4.895467,0,stoparea:GVB:01369,,1,,
GVB:01371,01371,"Amsterdam, Buiksloterwegveer",52.38242,4.903677,0,stoparea:GVB:01371,,1,,
GVB:01372,01372,"Amsterdam, Buiksloterwegveer",52.382502,4.903838,0,stoparea:GVB:01371,,1,,
GVB:01377,01377,"Amsterdam, Molenwijk",52.418266,4.893555,0,stoparea:GVB:01359,,0,,
GVB:01378,01378,"Amsterdam, Molenaarsweg",52.421462,4.886301,0,stoparea:GVB:01378,,0,,
GVB:01379,01379,"Amsterdam, Molenaarsweg",52.421467,4.887462,0,stoparea:GVB:01378,,0,,
GVB:01380,01380,"Amsterdam, Zuideinde",52.420079,4.893005,0,stoparea:GVB:01380,,0,,
GVB:01381,01381,"Amsterdam, Zuideinde",52.420115,4.892887,0,stoparea:GVB:01380,,0,,
GVB:01382,01382,"Amsterdam, Vorticellaweg",52.419755,4.908047,0,stoparea:GVB:01382,,0,,
GVB:01383,01383,"Amsterdam, Vorticellaweg",52.419969,4.907662,0,stoparea:GVB:01382,,0,,
GVB:01386,01386,"Amsterdam, Zuiderzeeweg",52.382419,4.969492,0,stoparea:GVB:01386,,0,,
GVB:01387,01387,"Amsterdam, Zuiderzeeweg",52.382381,4.971505,0,stoparea:GVB:01386,,0,,
GVB:01388,01388,"Amsterdam, Liergouw",52.383321,4.970468,0,stoparea:GVB:01388,,0,,
GVB:01389,01389,"Amsterdam, Liergouw",52.383349,4.970761,0,stoparea:GVB:01388,,0,,
GVB:01401,01401,"Amsterdam, Klaprozenweg",52.398385,4.906574,0,stoparea:GVB:01193,,1,,
GVB:01403,01403,"Amsterdam, Distelweg",52.394514,4.902678,0,stoparea:GVB:01403,,1,,
GVB:01404,01404,"Amsterdam, Distelweg",52.394224,4.902314,0,stoparea:GVB:01403,,1,,
GVB:01406,01406,"Amsterdam, Klaprozenweg",52.397863,4.906285,0,stoparea:GVB:01406,,0,,
GVB:01409,01409,"Amsterdam, Kadoelenpad",52.41336,4.911291,0,stoparea:GVB:01409,,1,,
GVB:01410,01410,"Amsterdam, Kadoelenpad",52.413908,4.911403,0,stoparea:GVB:01409,,1,,
GVB:01411,01411,"Amsterdam, Meidoornplein",52.38754,4.9117,0,stoparea:GVB:01411,,0,,
GVB:01412,01412,"Amsterdam, Meidoornplein",52.387357,4.911071,0,stoparea:GVB:01411,,0,,
GVB:01414,01414,"Amsterdam, Olof Palmeplein",52.396791,4.940119,0,stoparea:GVB:01066,,0,,
GVB:01415,01415,"Amsterdam, Olof Palmeplein",52.396683,4.940164,0,stoparea:GVB:01066,,0,,
GVB:01416,01416,"Amsterdam, Olof Palmeplein",52.396718,4.939841,0,stoparea:GVB:01066,,0,,
GVB:01417,01417,"Amsterdam, Johan v.Hasseltweg",52.387846,4.923096,0,stoparea:GVB:01417,,0,,
GVB:01420,01420,"Amsterdam, Fluitschipstraat",52.403636,4.916009,0,stoparea:GVB:01420,,0,,
GVB:01421,01421,"Amsterdam, Fluitschipstraat",52.403771,4.916184,0,stoparea:GVB:01420,,0,,
GVB:01424,01424,"Amsterdam, Molenwijk",52.418203,4.893482,0,stoparea:GVB:01359,,0,,
GVB:01433,01433,"Amsterdam, Lange Vonder",52.421872,4.896146,0,stoparea:GVB:01433,,1,,
GVB:01434,01434,"Amsterdam, Lange Vonder",52.421909,4.896454,0,stoparea:GVB:01433,,1,,
GVB:01435,01435,"Amsterdam, P.A. v. Heijningestraat",52.422101,4.899378,0,stoparea:GVB:01435,,1,,
GVB:01436,01436,"Amsterdam, P.A. v. Heijningestraat",52.422067,4.89976,0,stoparea:GVB:01435,,1,,
GVB:01443,01443,"Amsterdam, Volendammerweg",52.392557,4.956968,0,stoparea:GVB:01005,,1,,
GVB:01446,01446,"Amsterdam, Johan v.Hasseltweg",52.387918,4.923227,0,stoparea:GVB:01417,,1,,
GVB:02013,02013,"Amsterdam, Oderweg",52.390109,4.821445,0,stoparea:GVB:02013,,0,,
GVB:02014,02014,"Amsterdam, Kapoeasweg",52.390122,4.82807,0,stoparea:GVB:02014,,0,,
GVB:02015,02015,"Amsterdam, Kastrupstraat",52.39013,4.833579,0,stoparea:GVB:02015,,0,,
GVB:02018,02018,"Amsterdam, Koivistokade",52.397897,4.875768,0,stoparea:GVB:02018,,0,,
GVB:02019,02019,"Amsterdam, Koivistokade",52.397904,4.875371,0,stoparea:GVB:02018,,0,,
GVB:02043,02043,"Amsterdam, Nieuwe Hemweg",52.401076,4.850972,0,stoparea:GVB:02043,,1,,
GVB:02055,02055,"Amsterdam, Nieuwe Hemweg",52.401679,4.849099,0,stoparea:GVB:02043,,1,,
GVB:02060,02060,"Amsterdam, Spaarndammerdijk",52.392607,4.860404,0,stoparea:GVB:02060,,0,,
GVB:02061,02061,"Amsterdam, Spaarndammerdijk",52.392399,4.862037,0,stoparea:GVB:02060,,1,,
GVB:02064,02064,"Amsterdam, Kabelweg",52.39205,4.848275,0,stoparea:GVB:02064,,0,,
GVB:02065,02065,"Amsterdam, Kabelweg",52.391701,4.848618,0,stoparea:GVB:02064,,0,,
GVB:02066,02066,"Amsterdam, La Guardiaweg",52.391904,4.84008,0,stoparea:GVB:02066,,0,,
GVB:02086,02086,"Amsterdam, Solebaystraat",52.385011,4.85594,0,stoparea:GVB:02086,,0,,
GVB:02088,02088,"Amsterdam, Vredenhof",52.385199,4.863782,0,stoparea:GVB:02088,,0,,
GVB:02089,02089,"Amsterdam, Vredenhof",52.385273,4.862386,0,stoparea:GVB:02088,,0,,
GVB:02091,02091,"Amsterdam, Oostzaanstraat",52.392811,4.873932,0,stoparea:GVB:02017,,0,,
GVB:02095,02095,"Amsterdam, Oderweg",52.390184,4.820284,0,stoparea:GVB:02013,,0,,
GVB:02096,02096,"Amsterdam, Kapoeasweg",52.390153,4.82688,0,stoparea:GVB:02014,,0,,
GVB:02097,02097,"Amsterdam, Kastrupstraat",52.390163,4.832947,0,stoparea:GVB:02015,,0,,
GVB:02098,02098,"Amsterdam, Oostzaanstraat",52.392896,4.874974,0,stoparea:GVB:02017,,,,
GVB:02102,02102,"Amsterdam, Spaarndammerstraat",52.391475,4.878883,0,stoparea:GVB:02102,,0,,
GVB:02103,02103,"Amsterdam, Spaarndammerstraat",52.392162,4.877656,0,stoparea:GVB:02102,,0,,
GVB:02104,02104,"Amsterdam, Houtmankade",52.390858,4.883929,0,stoparea:GVB:02104,,0,,
GVB:02105,02105,"Amsterdam, Houtmankade",52.391069,4.88284,0,stoparea:GVB:02104,,0,,
GVB:02106,02106,"Amsterdam, Assendelftstraat",52.38941,4.879436,0,stoparea:GVB:02106,,0,,
GVB:02107,02107,"Amsterdam, Assendelftstraat",52.388828,4.879839,0,stoparea:GVB:02106,,0,,
GVB:02108,02108,"Amsterdam, Nova Zemblastraat",52.390978,4.878301,0,stoparea:GVB:02102,,0,,
GVB:02109,02109,"Amsterdam, Nova Zemblastraat",52.391175,4.878123,0,stoparea:GVB:02102,,0,,
GVB:02111,02111,"Amsterdam, Nassauplein",52.385257,4.881466,0,stoparea:GVB:02110,,1,,
GVB:02112,02112,"Amsterdam, Nassauplein",52.385437,4.881494,0,stoparea:GVB:02110,,1,,
GVB:02113,02113,"Amsterdam, Haarlemmerplein",52.385159,4.883715,0,stoparea:GVB:02113,,0,,
GVB:02114,02114,"Amsterdam, Haarlemmerplein",52.384843,4.88341,0,stoparea:GVB:02113,,1,,
GVB:02115,02115,"Amsterdam, Nw. Willemsstraat",52.381157,4.880867,0,stoparea:GVB:02115,,0,,
GVB:02118,02118,"Amsterdam, Nw. Willemsstraat",52.381273,4.88088,0,stoparea:GVB:02115,,0,,
GVB:02120,02120,"Amsterdam, Marnixplein",52.378543,4.879164,0,stoparea:GVB:02120,,0,,
GVB:02121,02121,"Amsterdam, Marnixplein",52.378388,4.878593,0,stoparea:GVB:02120,,0,,
GVB:02122,02122,"Amsterdam, Marnixplein",52.378056,4.878861,0,stoparea:GVB:02120,,0,,
GVB:02123,02123,"Amsterdam, Marnixplein",52.379047,4.879408,0,stoparea:GVB:02120,,0,,
GVB:02125,02125,"Amsterdam, Bloemgracht",52.374172,4.876321,0,stoparea:GVB:02125,,0,,
GVB:02126,02126,"Amsterdam, Bloemgracht",52.374496,4.876581,0,stoparea:GVB:02125,,0,,
GVB:02127,02127,"Amsterdam, Rozengracht",52.372525,4.87584,0,stoparea:GVB:02127,,0,,
GVB:02128,02128,"Amsterdam, G. v.Ledenberchstraat",52.375207,4.870626,0,stoparea:GVB:02128,,0,,
GVB:02129,02129,"Amsterdam, G. v.Ledenberchstraat",52.375091,4.870803,0,stoparea:GVB:02128,,0,,
GVB:02130,02130,"Amsterdam, Hugo de Grootplein",52.374389,4.872588,0,stoparea:GVB:02128,,0,,
GVB:02131,02131,"Amsterdam, Hugo de Grootplein",52.374966,4.872919,0,stoparea:GVB:02128,,0,,
GVB:02132,02132,"Amsterdam, Fred. Hendrikplants.",52.378626,4.875432,0,stoparea:GVB:02132,,0,,
GVB:02133,02133,"Amsterdam, Fred. Hendrikplants.",52.378418,4.875214,0,stoparea:GVB:02132,,0,,
GVB:02136,02136,"Amsterdam, Fred. Hendrikplants.",52.379003,4.875355,0,stoparea:GVB:02132,,0,,
GVB:02137,02137,"Amsterdam, Kostverlorenstraat",52.379679,4.871734,0,stoparea:GVB:02137,,1,,
GVB:02138,02138,"Amsterdam, Kostverlorenstraat",52.379526,4.871706,0,stoparea:GVB:02137,,1,,
GVB:02139,02139,"Amsterdam, Van Beuningenplein",52.381375,4.871127,0,stoparea:GVB:02139,,1,,
GVB:02140,02140,"Amsterdam, Van Beuningenplein",52.381222,4.871114,0,stoparea:GVB:02139,,1,,
GVB:02141,02141,"Amsterdam, V.d. Hoopstraat",52.383394,4.870369,0,stoparea:GVB:02145,,1,,
GVB:02142,02142,"Amsterdam, V.d. Hoopstraat",52.383349,4.87031,0,stoparea:GVB:02145,,1,,
GVB:02143,02143,"Amsterdam, Fred. Hendrikplants.",52.378719,4.874065,0,stoparea:GVB:02132,,0,,
GVB:02145,02145,"Amsterdam, Van Hallstraat",52.384183,4.869904,0,stoparea:GVB:02145,,0,,
GVB:02146,02146,"Amsterdam, Van L.Stirumstraat",52.385444,4.874766,0,stoparea:GVB:02146,,0,,
GVB:02147,02147,"Amsterdam, Van L.Stirumstraat",52.385482,4.875177,0,stoparea:GVB:02146,,0,,
GVB:02148,02148,"Amsterdam, Van L.Stirumstraat",52.384269,4.875176,0,stoparea:GVB:02148,,0,,
GVB:02149,02149,"Amsterdam, Van L.Stirumstraat",52.384429,4.874895,0,stoparea:GVB:02148,,0,,
GVB:02150,02150,"Amsterdam, De Wittenkade",52.3831,4.877173,0,stoparea:GVB:02150,,1,,
GVB:02151,02151,"Amsterdam, De Wittenkade",52.383261,4.87695,0,stoparea:GVB:02150,,1,,
GVB:02152,02152,"Amsterdam, Nassaukade",52.380834,4.879064,0,stoparea:GVB:02152,,0,,
GVB:02153,02153,"Amsterdam, Nassaukade",52.38132,4.879205,0,stoparea:GVB:02152,,0,,
GVB:02154,02154,"Amsterdam, De Clercqstraat",52.371189,4.870526,0,stoparea:GVB:02154,,0,,
GVB:02155,02155,"Amsterdam, Willem de Zwijgerlaan",52.37071,4.8636,0,stoparea:GVB:02155,,0,,
GVB:02156,02156,"Amsterdam, Willem de Zwijgerlaan",52.370389,4.86425,0,stoparea:GVB:02155,,0,,
GVB:02157,02157,"Amsterdam, Adm. de Ruijterweg",52.371485,4.860096,0,stoparea:GVB:02157,,0,,
GVB:02158,02158,"Amsterdam, Adm. de Ruijterweg",52.371291,4.860965,0,stoparea:GVB:02157,,0,,
GVB:02159,02159,"Amsterdam, Jan Evertsenstraat",52.371842,4.859431,0,stoparea:GVB:02157,,1,,
GVB:02160,02160,"Amsterdam, Haparandaweg",52.394716,4.873895,0,stoparea:GVB:02017,,,,
GVB:02161,02161,"Amsterdam, Haparandaweg",52.3946,4.874043,0,stoparea:GVB:02017,,,,
GVB:02164,02164,"Amsterdam, De Rijpstraat",52.377254,4.857766,0,stoparea:GVB:02164,,1,,
GVB:02166,02166,"Amsterdam, Bos en Lommerweg",52.380164,4.855484,0,stoparea:GVB:02166,,1,,
GVB:02167,02167,"Amsterdam, Bos en Lommerweg",52.381181,4.853798,0,stoparea:GVB:02166,,0,,
GVB:02169,02169,"Amsterdam, Wiltzanghlaan",52.382064,4.852186,0,stoparea:GVB:02169,,0,,
GVB:02171,02171,"Amsterdam, Wiltzanghlaan",52.382902,4.850605,0,stoparea:GVB:02169,,1,,
GVB:02172,02172,"Amsterdam, Molenwerf",52.386204,4.845526,0,stoparea:GVB:02172,,,,
GVB:02174,02174,"Amsterdam, Molenwerf",52.386011,4.846469,0,stoparea:GVB:02174,,,,
GVB:02177,02177,"Amsterdam, Bos en Lommerweg",52.381008,4.85521,0,stoparea:GVB:02166,,0,,
GVB:02182,02182,"Amsterdam, Markthallen",52.375677,4.866949,0,stoparea:GVB:02182,,0,,
GVB:02183,02183,"Amsterdam, Markthallen",52.375756,4.866669,0,stoparea:GVB:02182,,1,,
GVB:02184,02184,"Amsterdam, Jan v.Galenstraat",52.374847,4.860335,0,stoparea:GVB:02184,,0,,
GVB:02190,02190,"Amsterdam, Karel Doormanstraat",52.378895,4.856954,0,stoparea:GVB:02190,,1,,
GVB:02194,02194,"Amsterdam, Hornhaven",52.394667,4.808752,0,stoparea:GVB:02194,,1,,
GVB:02197,02197,"Amsterdam, Hornhaven",52.39502,4.80744,0,stoparea:GVB:02194,,0,,
GVB:02200,02200,"Amsterdam, Pleimuiden",52.391807,4.784873,0,stoparea:GVB:02200,,0,,
GVB:02201,02201,"Amsterdam, Abberdaan",52.391805,4.780877,0,stoparea:GVB:02201,,0,,
GVB:02220,02220,"Amsterdam, Jan Evertsenstraat",52.372039,4.859414,0,stoparea:GVB:02157,,1,,
GVB:02221,02221,"Amsterdam, Jan v.Galenstraat",52.375324,4.858421,0,stoparea:GVB:02184,,0,,
GVB:02222,02222,"Amsterdam, Jan v.Galenstraat",52.373996,4.858745,0,stoparea:GVB:02184,,0,,
GVB:02252,02252,"Amsterdam, Zekeringstraat",52.396907,4.847188,0,stoparea:GVB:02252,,1,,
GVB:02253,02253,"Amsterdam, Zekeringstraat",52.397178,4.84742,0,stoparea:GVB:02252,,1,,
GVB:02257,02257,"Amsterdam, Kabelweg",52.39271,4.847268,0,stoparea:GVB:02064,,1,,
GVB:02258,02258,"Amsterdam, Kabelweg",52.392638,4.847122,0,stoparea:GVB:02064,,1,,
GVB:02259,02259,"Amsterdam, Contactweg",52.391952,4.856577,0,stoparea:GVB:02259,,0,,
GVB:02260,02260,"Amsterdam, Contactweg",52.392158,4.854327,0,stoparea:GVB:02259,,0,,
GVB:02270,02270,"Amsterdam, Bolstoen",52.391808,4.788575,0,stoparea:GVB:02270,,0,,
GVB:02273,02273,"Amsterdam, La Guardiaweg",52.391519,4.840364,0,stoparea:GVB:02066,,0,,
GVB:02283,02283,"Amsterdam, Dynamostraat",52.398691,4.848254,0,stoparea:GVB:02283,,1,,
GVB:02284,02284,"Amsterdam, Dynamostraat",52.398573,4.847976,0,stoparea:GVB:02283,,1,,
GVB:02290,02290,"Amsterdam, Jarmuiden",52.390658,4.790529,0,stoparea:GVB:02290,,0,,
GVB:02291,02291,"Amsterdam, Bornhout",52.396036,4.794762,0,stoparea:GVB:02291,,0,,
GVB:02294,02294,"Amsterdam, Station Sloterdijk",52.389329,4.838995,0,stoparea:GVB:02294,,1,,
GVB:02295,02295,"Amsterdam, Station Sloterdijk",52.388806,4.838781,0,stoparea:GVB:02294,,1,,
GVB:02296,02296,"Amsterdam, Isolatorweg",52.395109,4.851044,0,stoparea:GVB:02296,,1,,
GVB:02297,02297,"Amsterdam, Isolatorweg",52.395231,4.850132,0,stoparea:GVB:02296,,1,,
GVB:02301,02301,"Amsterdam, Fred. Hendrikplants.",52.378526,4.875213,0,stoparea:GVB:02132,,0,,
GVB:02302,02302,"Amsterdam, Fred. Hendrikplants.",52.37859,4.875491,0,stoparea:GVB:02132,,0,,
GVB:02309,02309,"Amsterdam, Plesostraat",52.387949,4.826453,0,stoparea:GVB:02309,,1,,
GVB:02310,02310,"Amsterdam, Plesostraat",52.387886,4.828495,0,stoparea:GVB:02309,,1,,
GVB:02311,02311,"Amsterdam, Seineweg",52.38632,4.81857,0,stoparea:GVB:02311,,1,,
GVB:02312,02312,"Amsterdam, Seineweg",52.386538,4.81892,0,stoparea:GVB:02311,,1,,
GVB:02316,02316,"Amsterdam, Naritaweg",52.387837,4.821886,0,stoparea:GVB:02316,,1,,
GVB:02317,02317,"Amsterdam, Naritaweg",52.387905,4.821018,0,stoparea:GVB:02316,,1,,
GVB:02319,02319,"Amsterdam, Solebaystraat",52.384316,4.855405,0,stoparea:GVB:02086,,0,,
GVB:02320,02320,"Amsterdam, Van Hallstraat",52.38527,4.86782,0,stoparea:GVB:02320,,0,,
GVB:02321,02321,"Amsterdam, Van Hallstraat",52.385382,4.868642,0,stoparea:GVB:02320,,0,,
GVB:02332,02332,"Amsterdam, Bornhout",52.395732,4.793311,0,stoparea:GVB:02332,,1,,
GVB:02333,02333,"Amsterdam, Herwijk",52.39572,4.787288,0,stoparea:GVB:02333,,1,,
GVB:02339,02339,"Amsterdam, Westpoortweg",52.397575,4.795226,0,stoparea:GVB:02338,,1,,
GVB:02342,02342,"Amsterdam, Scharenburg",52.395708,4.779692,0,stoparea:GVB:02342,,1,,
GVB:02344,02344,"Amsterdam, Westpoortweg",52.397031,4.794293,0,stoparea:GVB:02338,,1,,
GVB:02360,02360,"Amsterdam, Station Sloterdijk",52.388561,4.83827,0,stoparea:GVB:02294,,1,,
GVB:02361,02361,"Amsterdam, Station Sloterdijk",52.388332,4.839316,0,stoparea:GVB:02294,,0,N,
GVB:02364,02364,"Amsterdam, Station Sloterdijk",52.38833,4.838728,0,stoparea:GVB:02294,,1,B,
GVB:02365,02365,"Amsterdam, Station Sloterdijk",52.388222,4.83873,0,stoparea:GVB:02294,,1,C,
GVB:02366,02366,"Amsterdam, Station Sloterdijk",52.388132,4.838731,0,stoparea:GVB:02294,,1,D,
GVB:02367,02367,"Amsterdam, Station Sloterdijk",52.388015,4.838762,0,stoparea:GVB:02294,,1,E,
GVB:02369,02369,"Amsterdam, Station Sloterdijk",52.387818,4.838779,0,stoparea:GVB:02294,,1,G,
GVB:02373,02373,"Amsterdam, Station Sloterdijk",52.387162,4.83889,0,stoparea:GVB:02294,,1,M,
GVB:03003,03003,"Amsterdam, Postjesweg",52.365442,4.859463,0,stoparea:GVB:03003,,0,,
GVB:03004,03004,"Amsterdam, Postjesweg",52.365011,4.859513,0,stoparea:GVB:03003,,0,,
GVB:03005,03005,"Amsterdam, Van Kinsbergenstraat",52.36846,4.859046,0,stoparea:GVB:03005,,1,,
GVB:03006,03006,"Amsterdam, Van Kinsbergenstraat",52.3682,4.859064,0,stoparea:GVB:03005,,1,,
GVB:03007,03007,"Amsterdam, Jan Evertsenstraat",52.371246,4.858969,0,stoparea:GVB:02157,,0,,
GVB:03008,03008,"Amsterdam, Jan Evertsenstraat",52.370968,4.858972,0,stoparea:GVB:02157,,0,,
GVB:03009,03009,"Amsterdam, Witte de Withstraat",52.364782,4.858517,0,stoparea:GVB:03003,,0,,
GVB:03010,03010,"Amsterdam, Witte de Withstraat",52.364803,4.85928,0,stoparea:GVB:03003,,0,,
GVB:03012,03012,"Amsterdam, Postjesweg",52.364323,4.852371,0,stoparea:GVB:03012,,0,,
GVB:03013,03013,"Amsterdam, Hoofdweg",52.364262,4.852841,0,stoparea:GVB:03012,,0,,
GVB:03022,03022,"Amsterdam, Mercatorplein",52.370122,4.8507,0,stoparea:GVB:03150,,0,,
GVB:03023,03023,"Amsterdam, Marco Polostraat",52.370879,4.855199,0,stoparea:GVB:03023,,0,,
GVB:03024,03024,"Amsterdam, Marco Polostraat",52.370952,4.855463,0,stoparea:GVB:03023,,0,,
GVB:03025,03025,"Amsterdam, Jan v.Galenstraat",52.373419,4.848546,0,stoparea:GVB:03025,,0,,
GVB:03026,03026,"Amsterdam, Jan v.Galenstraat",52.373007,4.848712,0,stoparea:GVB:03025,,0,,
GVB:03034,03034,"Amsterdam, Erasmusgracht",52.376441,4.846908,0,stoparea:GVB:03034,,0,,
GVB:03036,03036,"Amsterdam, Egidiusstraat",52.378903,4.850756,0,stoparea:GVB:03036,,0,,
GVB:03037,03037,"Amsterdam, Egidiusstraat",52.379023,4.851503,0,stoparea:GVB:03036,,0,,
GVB:03038,03038,"Amsterdam, Bos en Lommerweg",52.380147,4.853693,0,stoparea:GVB:02166,,0,,
GVB:03051,03051,"Amsterdam, Burg. Eliasstraat",52.38037,4.828017,0,stoparea:GVB:03051,,1,,
GVB:03052,03052,"Amsterdam, Burg. Eliasstraat",52.380773,4.825647,0,stoparea:GVB:03051,,0,,
GVB:03054,03054,"Amsterdam, Burg. Fockstraat",52.379524,4.833388,0,stoparea:GVB:03053,,0,,
GVB:03055,03055,"Amsterdam, Burg. Fockstraat",52.379918,4.831078,0,stoparea:GVB:03053,,0,,
GVB:03057,03057,"Amsterdam, Ant. Moddermanstraat",52.38339,4.814745,0,stoparea:GVB:03057,,1,,
GVB:03060,03060,"Amsterdam, Bos en Lommerplein",52.37815,4.847181,0,stoparea:GVB:03060,,0,,
GVB:03061,03061,"Amsterdam, Bos en Lommerplein",52.377781,4.845233,0,stoparea:GVB:03060,,0,,
GVB:03069,03069,"Amsterdam, Adm. Helfrichstraat",52.369293,4.84447,0,stoparea:GVB:03068,,0,,
GVB:03071,03071,"Amsterdam, Jan Voermanstraat",52.369489,4.838183,0,stoparea:GVB:03071,,1,,
GVB:03076,03076,"Amsterdam, Jan Tooropstraat",52.371421,4.8381,0,stoparea:GVB:03076,,0,,
GVB:03077,03077,"Amsterdam, Jan Tooropstraat",52.371718,4.83817,0,stoparea:GVB:03076,,0,,
GVB:03079,03079,"Amsterdam, Burg. v.d. Pollstraat",52.373552,4.832479,0,stoparea:GVB:03078,,0,,
GVB:03087,03087,"Amsterdam, Plein '40 - '45",52.381594,4.820629,0,stoparea:GVB:03087,,1,,
GVB:03090,03090,"Amsterdam, Slotermeerlaan",52.37596,4.817279,0,stoparea:GVB:03090,,1,,
GVB:03091,03091,"Amsterdam, Slotermeerlaan",52.37542,4.820766,0,stoparea:GVB:03090,,1,,
GVB:03095,03095,"Amsterdam, Burg. v. Leeuwenlaan",52.37641,4.813734,0,stoparea:GVB:03095,,1,,
GVB:03096,03096,"Amsterdam, Burg. v. Leeuwenlaan",52.376255,4.813251,0,stoparea:GVB:03095,,1,,
GVB:03097,03097,"Amsterdam, Burg. v. Leeuwenlaan",52.376509,4.811823,0,stoparea:GVB:03095,,0,,
GVB:03098,03098,"Amsterdam, Burg. v. Leeuwenlaan",52.376447,4.812088,0,stoparea:GVB:03095,,0,,
GVB:03099,03099,"Amsterdam, Dr. H. Colijnstraat",52.376934,4.806722,0,stoparea:GVB:03099,,0,,
GVB:03100,03100,"Amsterdam, Dr. H. Colijnstraat",52.376949,4.806266,0,stoparea:GVB:03099,,0,,
GVB:03101,03101,"Amsterdam, Lambertus Zijlplein",52.377266,4.803002,0,stoparea:GVB:03101,,1,,
GVB:03102,03102,"Amsterdam, Confuciusplein",52.374469,4.811835,0,stoparea:GVB:03102,,0,,
GVB:03103,03103,"Amsterdam, Confuciusplein",52.374587,4.812069,0,stoparea:GVB:03102,,1,,
GVB:03104,03104,"Amsterdam, Dr. H. Colijnstraat",52.374715,4.807089,0,stoparea:GVB:03104,,1,,
GVB:03105,03105,"Amsterdam, Dr. H. Colijnstraat",52.374626,4.807251,0,stoparea:GVB:03104,,1,,
GVB:03106,03106,"Amsterdam, Troelstralaan",52.374715,4.801449,0,stoparea:GVB:03106,,1,,
GVB:03107,03107,"Amsterdam, Willinklaan",52.370925,4.800295,0,stoparea:GVB:03107,,1,,
GVB:03108,03108,"Amsterdam, Herman Bonpad",52.367962,4.800805,0,stoparea:GVB:03108,,0,,
GVB:03109,03109,"Amsterdam, Herman Bonpad",52.368931,4.800645,0,stoparea:GVB:03108,,1,,
GVB:03110,03110,"Amsterdam, Willinklaan",52.371123,4.800425,0,stoparea:GVB:03107,,1,,
GVB:03111,03111,"Amsterdam, Troelstralaan",52.374978,4.802033,0,stoparea:GVB:03106,,0,,
GVB:03113,03113,"Amsterdam, Nolensstraat",52.375225,4.800988,0,stoparea:GVB:03106,,1,,
GVB:03114,03114,"Amsterdam, De Sav. Lohmanstraat",52.375439,4.800794,0,stoparea:GVB:03106,,0,,
GVB:03115,03115,"Amsterdam, De Sav. Lohmanstraat",52.37608,4.797701,0,stoparea:GVB:03115,,0,,
GVB:03116,03116,"Amsterdam, De Sav. Lohmanstraat",52.37625,4.797567,0,stoparea:GVB:03115,,0,,
GVB:03117,03117,"Amsterdam, Sam van Houtenstraat",52.378688,4.797902,0,stoparea:GVB:03117,,0,,
GVB:03118,03118,"Amsterdam, Sam van Houtenstraat",52.379767,4.798005,0,stoparea:GVB:03117,,0,,
GVB:03121,03121,"Amsterdam, Aalbersestraat",52.382021,4.79774,0,stoparea:GVB:03121,,0,,
GVB:03122,03122,"Amsterdam, Aalbersestraat",52.382324,4.79897,0,stoparea:GVB:03121,,0,,
GVB:03123,03123,"Amsterdam, Dr. H. Colijnstraat",52.382447,4.805651,0,stoparea:GVB:03123,,0,,
GVB:03125,03125,"Amsterdam, Ant. Moddermanstraat",52.383302,4.81338,0,stoparea:GVB:03057,,1,,
GVB:03129,03129,"Amsterdam, Plein '40 - '45",52.380751,4.821124,0,stoparea:GVB:03087,,0,,
GVB:03130,03130,"Amsterdam, Plein '40 - '45",52.381208,4.822675,0,stoparea:GVB:03087,,0,,
GVB:03131,03131,"Amsterdam, Lod. v. Deysselstraat",52.377302,4.81967,0,stoparea:GVB:03131,,0,,
GVB:03132,03132,"Amsterdam, Lod. v. Deysselstraat",52.376762,4.819501,0,stoparea:GVB:03131,,0,,
GVB:03145,03145,"Amsterdam, J. Cabeliaustraat",52.382466,4.804094,0,stoparea:GVB:03145,,0,,
GVB:03150,03150,"Amsterdam, Mercatorplein",52.370317,4.850111,0,stoparea:GVB:03150,,0,,
GVB:03157,03157,"Amsterdam, Lambertus Zijlplein",52.377268,4.803384,0,stoparea:GVB:03101,,0,,
GVB:03162,03162,"Amsterdam, Burg.de Vlugtlaan",52.378836,4.838185,0,stoparea:GVB:03204,,1,,
GVB:03163,03163,"Amsterdam, Burg.de Vlugtlaan",52.378817,4.837935,0,stoparea:GVB:03204,,1,,
GVB:03164,03164,"Amsterdam, Nachtwachtlaan",52.364209,4.843108,0,stoparea:GVB:03164,,0,,
GVB:03165,03165,"Amsterdam, Nachtwachtlaan",52.364093,4.843315,0,stoparea:GVB:03164,,0,,
GVB:03167,03167,"Amsterdam, Bos en Lommerplein",52.377095,4.846504,0,stoparea:GVB:03060,,1,,
GVB:03168,03168,"Amsterdam, Mercatorplein",52.370242,4.851521,0,stoparea:GVB:03150,,0,,
GVB:03169,03169,"Amsterdam, Jan v.Galenstraat",52.373011,4.83601,0,stoparea:GVB:03202,,0,,
GVB:03170,03170,"Amsterdam, Jan v.Galenstraat",52.37324,4.83495,0,stoparea:GVB:03202,,0,,
GVB:03171,03171,"Amsterdam, Burg. Rendorpstraat",52.374365,4.827682,0,stoparea:GVB:03171,,1,,
GVB:03172,03172,"Amsterdam, Burg. Rendorpstraat",52.374451,4.826917,0,stoparea:GVB:03171,,0,,
GVB:03174,03174,"Amsterdam, Burg. Röellstraat",52.374762,4.818631,0,stoparea:GVB:03090,,0,,
GVB:03175,03175,"Amsterdam, Burg. Röellstraat",52.375177,4.818831,0,stoparea:GVB:03090,,0,,
GVB:03176,03176,"Amsterdam, Sloterpark",52.372948,4.818903,0,stoparea:GVB:03176,,0,,
GVB:03178,03178,"Amsterdam, Mercatorplein",52.370801,4.849914,0,stoparea:GVB:03150,,0,,
GVB:03179,03179,"Amsterdam, Adm. Helfrichstraat",52.369443,4.843866,0,stoparea:GVB:03068,,0,,
GVB:03180,03180,"Amsterdam, Adm. Helfrichstraat",52.36942,4.844586,0,stoparea:GVB:03068,,0,,
GVB:03181,03181,"Amsterdam, Jan Voermanstraat",52.369703,4.837887,0,stoparea:GVB:03070,,0,,
GVB:03182,03182,"Amsterdam, Jan Voermanstraat",52.369589,4.83852,0,stoparea:GVB:03070,,0,,
GVB:03187,03187,"Amsterdam, Jan Zwanenburghof",52.382996,4.818907,0,stoparea:GVB:03187,,1,,
GVB:03188,03188,"Amsterdam, Jan Zwanenburghof",52.382672,4.818749,0,stoparea:GVB:03187,,1,,
GVB:03197,03197,"Amsterdam, W. Schoutenstraat",52.36737,4.852378,0,stoparea:GVB:03197,,0,,
GVB:03198,03198,"Amsterdam, W. Schoutenstraat",52.36702,4.852588,0,stoparea:GVB:03197,,0,,
GVB:03202,03202,"Amsterdam, Jan v.Galenstraat",52.372469,4.835312,0,stoparea:GVB:03202,,1,,
GVB:03203,03203,"Amsterdam, Jan v.Galenstraat",52.371963,4.834922,0,stoparea:GVB:03202,,1,,
GVB:03204,03204,"Amsterdam, Burg.de Vlugtlaan",52.380006,4.838464,0,stoparea:GVB:03204,,1,,
GVB:03205,03205,"Amsterdam, Burg.de Vlugtlaan",52.37951,4.838088,0,stoparea:GVB:03204,,1,,
GVB:03216,03216,"Amsterdam, Jan v.Galenstraat",52.372834,4.836497,0,stoparea:GVB:03202,,0,,
GVB:04001,04001,"Amsterdam, Jan Rebelstraat",52.361563,4.783081,0,stoparea:GVB:04001,,0,,
GVB:04002,04002,"Amsterdam, Jan Rebelstraat",52.361946,4.784221,0,stoparea:GVB:04001,,0,,
GVB:04008,04008,"Amsterdam, Dijkgraafplein",52.355451,4.786467,0,stoparea:GVB:04008,,1,,
GVB:04009,04009,"Amsterdam, Dijkgraafplein",52.355561,4.786891,0,stoparea:GVB:04008,,1,,
GVB:04010,04010,"Amsterdam, Osdorper Ban",52.35978,4.789389,0,stoparea:GVB:04010,,1,,
GVB:04011,04011,"Amsterdam, Baden Powellweg",52.356502,4.791723,0,stoparea:GVB:04011,,0,,
GVB:04012,04012,"Amsterdam, Baden Powellweg",52.356464,4.791371,0,stoparea:GVB:04011,,0,,
GVB:04015,04015,"Amsterdam, Hoekenes",52.358022,4.799277,0,stoparea:GVB:04015,,0,,
GVB:04016,04016,"Amsterdam, Hoekenes",52.357911,4.798545,0,stoparea:GVB:04015,,0,,
GVB:04019,04019,"Amsterdam, Hoekenes",52.358218,4.800625,0,stoparea:GVB:04015,,0,,
GVB:04020,04020,"Amsterdam, Hoekenes",52.358324,4.800286,0,stoparea:GVB:04015,,0,,
GVB:04021,04021,"Amsterdam, Osdorpplein",52.35913,4.803226,0,stoparea:GVB:04021,,0,,
GVB:04022,04022,"Amsterdam, Osdorpplein",52.359624,4.80322,0,stoparea:GVB:04021,,0,,
GVB:04024,04024,"Amsterdam, Baden Powellweg",52.362486,4.787825,0,stoparea:GVB:04024,,1,,
GVB:04025,04025,"Amsterdam, Baden Powellweg",52.362279,4.787725,0,stoparea:GVB:04024,,1,,
GVB:04026,04026,"Amsterdam, Saaftingestraat",52.360025,4.790017,0,stoparea:GVB:04010,,0,,
GVB:04027,04027,"Amsterdam, Saaftingestraat",52.360401,4.791406,0,stoparea:GVB:04010,,0,,
GVB:04028,04028,"Amsterdam, Reimerswaalstraat",52.360981,4.794261,0,stoparea:GVB:04028,,0,,
GVB:04029,04029,"Amsterdam, Reimerswaalstraat",52.361159,4.795624,0,stoparea:GVB:04028,,0,,
GVB:04030,04030,"Amsterdam, Bullepad",52.361997,4.79968,0,stoparea:GVB:04030,,0,,
GVB:04031,04031,"Amsterdam, Bullepad",52.362013,4.799342,0,stoparea:GVB:04030,,0,,
GVB:04032,04032,"Amsterdam, Geer Ban",52.362906,4.803602,0,stoparea:GVB:04032,,1,,
GVB:04033,04033,"Amsterdam, Geer Ban",52.362837,4.804234,0,stoparea:GVB:04032,,1,,
GVB:04038,04038,"Amsterdam, Vrijzicht",52.362217,4.806004,0,stoparea:GVB:04038,,0,,
GVB:04039,04039,"Amsterdam, Vrijzicht",52.362542,4.806205,0,stoparea:GVB:04038,,0,,
GVB:04040,04040,"Amsterdam, Ruimzicht",52.359456,4.807464,0,stoparea:GVB:04040,,1,,
GVB:04041,04041,"Amsterdam, Ruimzicht",52.359834,4.80765,0,stoparea:GVB:04040,,1,,
GVB:04042,04042,"Amsterdam, Ruimzicht",52.35951,4.807581,0,stoparea:GVB:04040,,0,,
GVB:04043,04043,"Amsterdam, Ruimzicht",52.35978,4.807489,0,stoparea:GVB:04040,,1,,
GVB:04044,04044,"Amsterdam, Osdorpplein",52.358009,4.805634,0,stoparea:GVB:04044,,0,,
GVB:04045,04045,"Amsterdam, Osdorpplein",52.358069,4.806881,0,stoparea:GVB:04045,,,,
GVB:04047,04047,"Amsterdam, Meer en Vaart",52.356865,4.808819,0,stoparea:GVB:04047,,0,,
GVB:04048,04048,"Amsterdam, Meer en Vaart",52.356984,4.809185,0,stoparea:GVB:04047,,0,,
GVB:04049,04049,"Amsterdam, Meer en Vaart",52.356469,4.810586,0,stoparea:GVB:04047,,0,,
GVB:04050,04050,"Amsterdam, Meer en Vaart",52.356367,4.809941,0,stoparea:GVB:04047,,0,,
GVB:04051,04051,"Amsterdam, C.K. Eloutstraat",52.354343,4.811377,0,stoparea:GVB:04051,,0,,
GVB:04052,04052,"Amsterdam, C.K. Eloutstraat",52.35447,4.811683,0,stoparea:GVB:04051,,0,,
GVB:04053,04053,"Amsterdam, Piet Wiedijkstraat",52.355135,4.815374,0,stoparea:GVB:04053,,0,,
GVB:04054,04054,"Amsterdam, Piet Wiedijkstraat",52.355216,4.815343,0,stoparea:GVB:04053,,0,,
GVB:04055,04055,"Amsterdam, V. M. Broekmanstraat",52.3568,4.821459,0,stoparea:GVB:04055,,1,,
GVB:04056,04056,"Amsterdam, V. M. Broekmanstraat",52.356459,4.82139,0,stoparea:GVB:04055,,1,,
GVB:04057,04057,"Amsterdam, Hemsterhuisstraat",52.359175,4.821898,0,stoparea:GVB:04057,,1,,
GVB:04058,04058,"Amsterdam, Hemsterhuisstraat",52.359121,4.821826,0,stoparea:GVB:04057,,1,,
GVB:04060,04060,"Amsterdam, Derkinderenstraat",52.357965,4.83972,0,stoparea:GVB:04060,,1,,
GVB:04061,04061,"Amsterdam, Derkinderenstraat",52.35794,4.840146,0,stoparea:GVB:04060,,1,,
GVB:04062,04062,"Amsterdam, Johan Huizingalaan",52.35781,4.825821,0,stoparea:GVB:04062,,1,,
GVB:04063,04063,"Amsterdam, Johan Huizingalaan",52.357785,4.826261,0,stoparea:GVB:04062,,0,,
GVB:04067,04067,"Amsterdam, Wolbrantskerkweg",52.356846,4.79759,0,stoparea:GVB:04066,,0,,
GVB:04068,04068,"Amsterdam, Koos Vorrinkweg",52.35291,4.799682,0,stoparea:GVB:04068,,1,,
GVB:04088,04088,"Amsterdam, Louwesweg",52.346694,4.824362,0,stoparea:GVB:04088,,0,,
GVB:04089,04089,"Amsterdam, Louwesweg",52.346707,4.825139,0,stoparea:GVB:04088,,0,,
GVB:04091,04091,"Amsterdam, Louweshoek",52.346311,4.823119,0,stoparea:GVB:04091,,0,,
GVB:04094,04094,"Amsterdam, Aletta Jacobslaan",52.346911,4.828468,0,stoparea:GVB:04094,,0,,
GVB:04095,04095,"Amsterdam, Aletta Jacobslaan",52.346869,4.82907,0,stoparea:GVB:04094,,0,,
GVB:04096,04096,"Amsterdam, Ottho Heldringstraat",52.346918,4.833795,0,stoparea:GVB:04318,,0,,
GVB:04097,04097,"Amsterdam, Ottho Heldringstraat",52.346969,4.833046,0,stoparea:GVB:04318,,0,,
GVB:04098,04098,"Amsterdam, Maassluisstraat",52.347002,4.838329,0,stoparea:GVB:04098,,0,,
GVB:04099,04099,"Amsterdam, Maassluisstraat",52.346969,4.838975,0,stoparea:GVB:04098,,0,,
GVB:04100,04100,"Amsterdam, Naaldwijkstraat",52.346887,4.842484,0,stoparea:GVB:04100,,1,,
GVB:04101,04101,"Amsterdam, Naaldwijkstraat",52.346842,4.842587,0,stoparea:GVB:04100,,1,,
GVB:04102,04102,"Amsterdam, Aalsmeerplein",52.346969,4.846798,0,stoparea:GVB:04102,,1,,
GVB:04103,04103,"Amsterdam, Aalsmeerplein",52.34694,4.846387,0,stoparea:GVB:04102,,1,,
GVB:04104,04104,"Amsterdam, Hoofddorpplein",52.350738,4.849496,0,stoparea:GVB:04104,,0,,
GVB:04105,04105,"Amsterdam, Hoofddorpplein",52.350675,4.849424,0,stoparea:GVB:04104,,0,,
GVB:04109,04109,"Amsterdam, Westlandgracht",52.351599,4.845039,0,stoparea:GVB:04109,,1,,
GVB:04110,04110,"Amsterdam, Westlandgracht",52.351567,4.845817,0,stoparea:GVB:04109,,0,,
GVB:04111,04111,"Amsterdam, Delflandlaan",52.35154,4.841913,0,stoparea:GVB:04111,,1,,
GVB:04112,04112,"Amsterdam, Johan Huizingalaan",52.349234,4.827426,0,stoparea:GVB:04112,,0,,
GVB:04113,04113,"Amsterdam, Johan Huizingalaan",52.349073,4.827502,0,stoparea:GVB:04112,,1,,
GVB:04114,04114,"Amsterdam, Heemstedestraat",52.351511,4.833723,0,stoparea:GVB:04320,,0,,
GVB:04116,04116,"Amsterdam, Heemstedestraat",52.351486,4.834164,0,stoparea:GVB:04320,,0,,
GVB:04120,04120,"Amsterdam, Delflandlaan",52.351556,4.839697,0,stoparea:GVB:04111,,0,,
GVB:04121,04121,"Amsterdam, Station Lelylaan",52.356664,4.834393,0,stoparea:GVB:04322,,1,,
GVB:04122,04122,"Amsterdam, Station Lelylaan",52.356664,4.834525,0,stoparea:GVB:04322,,1,,
GVB:04123,04123,"Amsterdam, Station Lelylaan",52.356682,4.834554,0,stoparea:GVB:04322,,1,,
GVB:04124,04124,"Amsterdam, Station Lelylaan",52.356692,4.834716,0,stoparea:GVB:04322,,1,,
GVB:04125,04125,"Amsterdam, Station Lelylaan",52.356702,4.834921,0,stoparea:GVB:04322,,1,,
GVB:04126,04126,"Amsterdam, Louis Davidsstraat",52.353222,4.809968,0,stoparea:GVB:04126,,0,,
GVB:04127,04127,"Amsterdam, Louis Davidsstraat",52.353015,4.809956,0,stoparea:GVB:04126,,0,,
GVB:04129,04129,"Amsterdam, Derkinderenstraat",52.364155,4.839262,0,stoparea:GVB:04129,,0,,
GVB:04130,04130,"Amsterdam, Derkinderenstraat",52.364067,4.83963,0,stoparea:GVB:04129,,0,,
GVB:04131,04131,"Amsterdam, Jan Tooropstraat",52.364031,4.835755,0,stoparea:GVB:04324,,0,,
GVB:04132,04132,"Amsterdam, Jan Tooropstraat",52.36411,4.835372,0,stoparea:GVB:04324,,0,,
GVB:04133,04133,"Amsterdam, Robert Fruinlaan",52.364036,4.829104,0,stoparea:GVB:04133,,0,,
GVB:04134,04134,"Amsterdam, Robert Fruinlaan",52.363987,4.830103,0,stoparea:GVB:04133,,0,,
GVB:04135,04135,"Amsterdam, Justus Lipsiusstraat",52.361511,4.827257,0,stoparea:GVB:04135,,0,,
GVB:04136,04136,"Amsterdam, Justus Lipsiusstraat",52.360818,4.827045,0,stoparea:GVB:04135,,0,,
GVB:04137,04137,"Amsterdam, Cornelis Lelylaan",52.358068,4.832937,0,stoparea:GVB:04137,,,,
GVB:04138,04138,"Amsterdam, Cornelis Lelylaan",52.357635,4.826777,0,stoparea:GVB:04062,,1,,
GVB:04139,04139,"Amsterdam, Cornelis Lelylaan",52.357981,4.827712,0,stoparea:GVB:04062,,1,,
GVB:04140,04140,"Amsterdam, Sierplein",52.355031,4.827324,0,stoparea:GVB:04140,,1,,
GVB:04141,04141,"Amsterdam, Sierplein",52.354914,4.827384,0,stoparea:GVB:04140,,1,,
GVB:04185,04185,"Amsterdam, Osdorpplein",52.359337,4.803341,0,stoparea:GVB:04021,,0,,
GVB:04186,04186,"Amsterdam, Osdorpplein",52.359237,4.803092,0,stoparea:GVB:04021,,0,,
GVB:04189,04189,"Amsterdam, Kon. Wilhelminaplein",52.35637,4.838947,0,stoparea:GVB:04188,,0,,
GVB:04195,04195,"Amsterdam, Station Lelylaan",52.357878,4.834598,0,stoparea:GVB:04322,,1,,
GVB:04196,04196,"Amsterdam, Station Lelylaan",52.357901,4.83382,0,stoparea:GVB:04322,,1,,
GVB:04208,04208,"Amsterdam, Jac. Veltmanstraat",52.351534,4.830964,0,stoparea:GVB:04208,,0,,
GVB:04214,04214,"Amsterdam, Griendstraat",52.358345,4.779426,0,stoparea:GVB:04214,,0,,
GVB:04215,04215,"Amsterdam, Griendstraat",52.358949,4.779917,0,stoparea:GVB:04214,,0,,
GVB:04229,04229,"Amsterdam, Zuidermolenweg",52.359917,4.781151,0,stoparea:GVB:04003,,0,,
GVB:04234,04234,"Amsterdam, Maaseikpad",52.348596,4.816089,0,stoparea:GVB:04234,,1,,
GVB:04235,04235,"Amsterdam, Maaseikpad",52.348145,4.815919,0,stoparea:GVB:04234,,1,,
GVB:04266,04266,"Schiphol, Havenmeesterweg",52.305486,4.758566,0,stoparea:GVB:04266,,1,,
GVB:04267,04267,"Schiphol, Schiphol Airport/Plaza",52.308871,4.761392,0,stoparea:GVB:04267,,1,B14,
GVB:04268,04268,"Schiphol, Vrachtgebouw /P12",52.304526,4.753829,0,stoparea:GVB:04268,,1,,
GVB:04270,04270,"Haarlemmermeer, Buitenweg",52.30634,4.758583,0,stoparea:GVB:04270,,0,,
GVB:04271,04271,"Schiphol, Skyport",52.307018,4.762767,0,stoparea:GVB:04271,,1,,
GVB:04274,04274,"Schiphol, Schiphol Airport/Plaza",52.309391,4.761047,0,stoparea:GVB:04267,,1,B15,
GVB:04276,04276,"Amsterdam, Laan v.Vlaanderen",52.346437,4.815677,0,stoparea:GVB:04276,,1,,
GVB:04277,04277,"Amsterdam, Laan v.Vlaanderen",52.346485,4.816425,0,stoparea:GVB:04276,,1,,
GVB:04278,04278,"Amsterdam, Kasterleepark",52.346304,4.810615,0,stoparea:GVB:04278,,1,,
GVB:04279,04279,"Amsterdam, Kasterleepark",52.346387,4.81104,0,stoparea:GVB:04278,,1,,
GVB:04300,04300,"Haarlemmermeer, Knooppunt Schiphol Nrd",52.322507,4.792927,0,stoparea:GVB:04300,,0,G,
GVB:04301,04301,"Amsterdam, Antwerpenbaan",52.34637,4.816749,0,stoparea:GVB:04301,,0,,
GVB:04302,04302,"Amsterdam, Antwerpenbaan",52.346226,4.816751,0,stoparea:GVB:04302,,0,,
GVB:04305,04305,"Amsterdam, Westmallepad",52.347501,4.805287,0,stoparea:GVB:04305,,1,,
GVB:04307,04307,"Amsterdam, Antwerpenbaan",52.345863,4.815919,0,stoparea:GVB:04276,,1,,
GVB:04308,04308,"Amsterdam, Antwerpenbaan",52.346035,4.81624,0,stoparea:GVB:04276,,1,,
GVB:04309,04309,"Schiphol, Cateringweg",52.322855,4.799699,0,stoparea:GVB:04300,,0,,
GVB:04314,04314,"Amsterdam, Oudenaardeplantsoen",52.34495,4.803823,0,stoparea:GVB:04314,,1,,
GVB:04315,04315,"Amsterdam, Hageland",52.345074,4.812627,0,stoparea:GVB:04315,,1,,
GVB:04316,04316,"Amsterdam, Hageland",52.344937,4.812291,0,stoparea:GVB:04315,,1,,
GVB:04318,04318,"Amsterdam, Henk Sneevlietweg",52.346796,4.83456,0,stoparea:GVB:04318,,1,,
GVB:04319,04319,"Amsterdam, Henk Sneevlietweg",52.346265,4.834391,0,stoparea:GVB:04318,,1,,
GVB:04320,04320,"Amsterdam, Heemstedestraat",52.353086,4.83435,0,stoparea:GVB:04320,,1,,
GVB:04321,04321,"Amsterdam, Heemstedestraat",52.352555,4.834209,0,stoparea:GVB:04320,,1,,
GVB:04322,04322,"Amsterdam, Station Lelylaan",52.358174,4.834462,0,stoparea:GVB:04322,,1,,
GVB:04323,04323,"Amsterdam, Station Lelylaan",52.357661,4.834263,0,stoparea:GVB:04322,,1,,
GVB:04324,04324,"Amsterdam, Postjesweg",52.365057,4.834024,0,stoparea:GVB:04324,,1,,
GVB:04325,04325,"Amsterdam, Postjesweg",52.364678,4.833853,0,stoparea:GVB:04324,,1,,
GVB:04327,04327,"Amsterdam, Plesmanlaan",52.350582,4.810442,0,stoparea:GVB:04326,,1,,
GVB:04328,04328,"Amsterdam, L. Bouwmeesterstraat",52.35613,4.822319,0,stoparea:GVB:04055,,0,,
GVB:04329,04329,"Amsterdam, L. Bouwmeesterstraat",52.356166,4.822172,0,stoparea:GVB:04055,,0,,
GVB:04332,04332,"Amsterdam, Anderlechtlaan",52.335744,4.814435,0,stoparea:GVB:04332,,1,,
GVB:04333,04333,"Amsterdam, Anderlechtlaan",52.335854,4.814815,0,stoparea:GVB:04332,,1,,
GVB:04339,04339,"Amsterdam, Brusselsingel",52.345012,4.807403,0,stoparea:GVB:04338,,1,,
GVB:04340,04340,"Amsterdam, Oudenaardeplantsoen",52.345032,4.80416,0,stoparea:GVB:04314,,1,,
GVB:04343,04343,"Amsterdam, Baden Powellweg",52.3566,4.791692,0,stoparea:GVB:04011,,0,,
GVB:04346,04346,"Schiphol, Schipholgebouw",52.30283,4.749396,0,stoparea:GVB:04346,,1,,
GVB:04373,04373,"Schiphol, Uiverweg",52.300246,4.743569,0,stoparea:GVB:04372,,1,,
GVB:04375,04375,"Schiphol, Toekanweg",52.296501,4.740838,0,stoparea:GVB:04375,,0,,
GVB:04379,04379,"Haarlemmermeer, Knooppunt Schiphol Nrd",52.32276,4.793202,0,stoparea:GVB:04379,,0,H,
GVB:04380,04380,"Haarlemmermeer, Knooppunt Schiphol Nrd",52.322761,4.793495,0,stoparea:GVB:04379,,0,C,
GVB:04381,04381,"Schiphol, Pelikaanweg",52.29796,4.744672,0,stoparea:GVB:04381,,0,,
GVB:04383,04383,"Amsterdam, La Meye",52.352995,4.773819,0,stoparea:GVB:04383,,0,,
GVB:04387,04387,"Amsterdam, Delflandlaan",52.351615,4.838742,0,stoparea:GVB:04387,,0,,
GVB:04389,04389,"Amsterdam, Heemstedestraat",52.351437,4.835354,0,stoparea:GVB:04320,,0,,
GVB:04390,04390,"Amsterdam, Presanella",52.351797,4.7768,0,stoparea:GVB:04390,,1,,
GVB:04392,04392,"Amsterdam, Allenstraat",52.34988,4.781508,0,stoparea:GVB:04392,,1,,
GVB:04394,04394,"Amsterdam, Ecuplein",52.349243,4.787124,0,stoparea:GVB:04394,,0,,
GVB:04401,04401,"Amsterdam, Matterhorn",52.353915,4.774378,0,stoparea:GVB:04401,,0,,
GVB:04402,04402,"Amsterdam, Matterhorn",52.353719,4.774777,0,stoparea:GVB:04401,,0,,
GVB:04403,04403,"Amsterdam, Pilatus",52.352894,4.776961,0,stoparea:GVB:04403,,0,,
GVB:04404,04404,"Amsterdam, Pilatus",52.352965,4.776681,0,stoparea:GVB:04403,,1,,
GVB:04405,04405,"Amsterdam, Inaristraat",52.350303,4.783425,0,stoparea:GVB:04405,,0,,
GVB:04406,04406,"Amsterdam, Inaristraat",52.350365,4.783146,0,stoparea:GVB:04405,,0,,
GVB:04407,04407,"Amsterdam, Ecuplein",52.349707,4.788174,0,stoparea:GVB:04407,,0,,
GVB:04408,04408,"Amsterdam, Ecuplein",52.349809,4.788862,0,stoparea:GVB:04407,,0,,
GVB:04409,04409,"Amsterdam, Baden Powellweg",52.350925,4.79441,0,stoparea:GVB:04409,,0,,
GVB:04410,04410,"Amsterdam, Baden Powellweg",52.351055,4.795186,0,stoparea:GVB:04409,,0,,
GVB:04411,04411,"Amsterdam, Hoekenes",52.352436,4.801832,0,stoparea:GVB:04411,,0,,
GVB:04412,04412,"Amsterdam, Hoekenes",52.352556,4.802608,0,stoparea:GVB:04411,,0,,
GVB:04413,04413,"Amsterdam, Louis Davidsstraat",52.353835,4.808506,0,stoparea:GVB:04413,,1,,
GVB:04414,04414,"Amsterdam, Louis Davidsstraat",52.353928,4.809107,0,stoparea:GVB:04413,,0,,
GVB:04416,04416,"Amsterdam, Matterhorn",52.35441,4.774577,0,stoparea:GVB:04401,,1,,
GVB:04417,04417,"Amsterdam, Matterhorn",52.354961,4.775112,0,stoparea:GVB:04401,,1,,
GVB:04418,04418,"Amsterdam, Oude Haagseweg",52.334076,4.811376,0,stoparea:GVB:04418,,0,,
GVB:04419,04419,"Amsterdam, Oude Haagseweg",52.333411,4.809668,0,stoparea:GVB:04418,,0,,
GVB:04421,04421,"Badhoevedorp, Koekoekslaan",52.329188,4.80249,0,stoparea:GVB:04420,,0,,
GVB:04431,04431,"Amsterdam, Dokter Meurerlaan",52.366749,4.806341,0,stoparea:GVB:04431,,1,,
GVB:04432,04432,"Amsterdam, Oeverpad",52.364926,4.804926,0,stoparea:GVB:04432,,1,,
GVB:04433,04433,"Amsterdam, Oeverpad",52.364476,4.804771,0,stoparea:GVB:04432,,1,,
GVB:05011,05011,"Amsterdam, Centraal Station",52.378106,4.899215,0,stoparea:GVB:05011,,0,B2,
GVB:05022,05022,"Amsterdam, Centraal Station",52.377718,4.901041,0,stoparea:GVB:05022,,0,A3,
GVB:05025,05025,"Amsterdam, Centraal Station",52.378216,4.897511,0,stoparea:GVB:05025,,0,F,
GVB:05026,05026,"Amsterdam, Centraal Station",52.377984,4.89791,0,stoparea:GVB:05025,,1,F,
GVB:05030,05030,"Amsterdam, Centraal Station",52.377632,4.897767,0,stoparea:GVB:05025,,1,F,
GVB:05031,05031,"Amsterdam, Dam",52.373408,4.893481,0,stoparea:GVB:05031,,0,,
GVB:05032,05032,"Amsterdam, Dam",52.374927,4.895491,0,stoparea:GVB:05031,,0,,
GVB:05033,05033,"Amsterdam, Centraal Station",52.377705,4.89781,0,stoparea:GVB:05025,,0,F,
GVB:05034,05034,"Amsterdam, Centraal Station",52.377651,4.89781,0,stoparea:GVB:05025,,0,F,
GVB:05035,05035,"Amsterdam, Spui",52.369394,4.892102,0,stoparea:GVB:05035,,1,,
GVB:05036,05036,"Amsterdam, Spui",52.369853,4.892302,0,stoparea:GVB:05035,,0,,
GVB:05046,05046,"Amsterdam, Rembrandtplein",52.366257,4.896277,0,stoparea:GVB:05046,,1,,
GVB:05047,05047,"Amsterdam, Rembrandtplein",52.366233,4.897026,0,stoparea:GVB:05046,,0,,
GVB:05048,05048,"Amsterdam, Mr. Visserplein",52.367663,4.906114,0,stoparea:GVB:05048,,0,,
GVB:05051,05051,"Amsterdam, Waterlooplein",52.368708,4.904399,0,stoparea:GVB:09508,,0,,
GVB:05052,05052,"Amsterdam, Waterlooplein",52.367271,4.902344,0,stoparea:GVB:09508,,0,,
GVB:05053,05053,"Amsterdam, Waterlooplein",52.366954,4.901952,0,stoparea:GVB:09508,,0,,
GVB:05055,05055,"Amsterdam, Dam",52.373125,4.890078,0,stoparea:GVB:05055,,0,,
GVB:05056,05056,"Amsterdam, Mr. Visserplein",52.367939,4.905391,0,stoparea:GVB:05048,,0,,
GVB:05061,05061,"Amsterdam, Spui",52.369329,4.889327,0,stoparea:GVB:05061,,0,,
GVB:05062,05062,"Amsterdam, Spui",52.369095,4.889256,0,stoparea:GVB:05061,,0,,
GVB:05063,05063,"Amsterdam, Dam",52.372444,4.890643,0,stoparea:GVB:05055,,0,,
GVB:05065,05065,"Amsterdam, Dam",52.373676,4.890791,0,stoparea:GVB:05055,,0,,
GVB:05066,05066,"Amsterdam, Dam",52.373179,4.890268,0,stoparea:GVB:05055,,0,,
GVB:05068,05068,"Amsterdam, Dam",52.374361,4.891239,0,stoparea:GVB:05055,,0,,
GVB:05069,05069,"Amsterdam, Nieuwezijds Kolk",52.376286,4.893728,0,stoparea:GVB:05069,,0,,
GVB:05070,05070,"Amsterdam, Nieuwezijds Kolk",52.375752,4.892838,0,stoparea:GVB:05069,,0,,
GVB:05073,05073,"Amsterdam, Westermarkt",52.374,4.884532,0,stoparea:GVB:05073,,1,,
GVB:05074,05074,"Amsterdam, Westermarkt",52.374077,4.883547,0,stoparea:GVB:05073,,0,,
GVB:05077,05077,"Amsterdam, Marnixstraat",52.372283,4.876152,0,stoparea:GVB:02127,,0,,
GVB:05078,05078,"Amsterdam, Marnixstraat",52.372476,4.877016,0,stoparea:GVB:02127,,0,,
GVB:05079,05079,"Amsterdam, Buiten Oranjestraat",52.383119,4.888056,0,stoparea:GVB:05079,,0,,
GVB:05080,05080,"Amsterdam, Buiten Oranjestraat",52.383307,4.887819,0,stoparea:GVB:05079,,0,,
GVB:05081,05081,"Amsterdam, Buiten Brouwersstraat",52.381507,4.89157,0,stoparea:GVB:05081,,0,,
GVB:05082,05082,"Amsterdam, Buiten Brouwersstraat",52.381668,4.891289,0,stoparea:GVB:05081,,0,,
GVB:05090,05090,"Amsterdam, Westerdoksdijk",52.385514,4.893317,0,stoparea:GVB:05090,,1,,
GVB:05091,05091,"Amsterdam, Westerdoksdijk",52.384551,4.893034,0,stoparea:GVB:05090,,1,,
GVB:05092,05092,"Amsterdam, Barentszplein",52.389381,4.891599,0,stoparea:GVB:05092,,0,,
GVB:05093,05093,"Amsterdam, Barentszplein",52.389012,4.891559,0,stoparea:GVB:05092,,0,,
GVB:05094,05094,"Amsterdam, Zoutkeetsgracht",52.388085,4.884871,0,stoparea:GVB:05094,,0,,
GVB:05095,05095,"Amsterdam, Centraal Station",52.379854,4.900327,0,stoparea:GVB:05095,,0,G-A,
GVB:05096,05096,"Amsterdam, Centraal Station",52.379675,4.900491,0,stoparea:GVB:05096,,0,G-L,
GVB:05097,05097,"Amsterdam, Centraal Station",52.379542,4.900874,0,stoparea:GVB:05095,,0,G-K,
GVB:05100,05100,"Amsterdam, Centraal Station",52.379748,4.900681,0,stoparea:GVB:05095,,0,G-B,
GVB:05101,05101,"Amsterdam, Centraal Station",52.379614,4.901049,0,stoparea:GVB:05095,,0,G-C,
GVB:05102,05102,"Amsterdam, Centraal Station",52.379472,4.901433,0,stoparea:GVB:05095,,0,G-D,
GVB:05103,05103,"Amsterdam, Centraal Station",52.379382,4.901272,0,stoparea:GVB:05095,,0,G-J,
GVB:05104,05104,"Amsterdam, Centraal Station",52.379248,4.901641,0,stoparea:GVB:05095,,0,G-H,
GVB:05138,05138,"Amsterdam, Dam",52.373552,4.891306,0,stoparea:GVB:05055,,0,,
GVB:05139,05139,"Amsterdam, Dam",52.372725,4.891242,0,stoparea:GVB:05055,,0,,
GVB:05151,05151,"Amsterdam, Centraal Station",52.376878,4.90011,0,stoparea:GVB:05113,,1,E,
GVB:05152,05152,"Amsterdam, Waterlooplein",52.367605,4.902825,0,stoparea:GVB:09508,,0,,
GVB:06001,06001,"Amsterdam, Surinameplein",52.358068,4.85252,0,stoparea:GVB:06001,,1,,
GVB:06002,06002,"Amsterdam, Surinameplein",52.35807,4.850905,0,stoparea:GVB:06001,,0,,
GVB:06008,06008,"Amsterdam, Surinameplein",52.358138,4.852093,0,stoparea:GVB:06001,,0,,
GVB:06010,06010,"Amsterdam, Corantijnstraat",52.361316,4.853259,0,stoparea:GVB:06010,,0,,
GVB:06013,06013,"Amsterdam, Corantijnstraat",52.361802,4.853297,0,stoparea:GVB:06010,,0,,
GVB:06015,06015,"Amsterdam, Postjesweg",52.363527,4.853159,0,stoparea:GVB:03012,,1,,
GVB:06016,06016,"Amsterdam, J.P. Heijestraat",52.364727,4.862394,0,stoparea:GVB:06016,,0,,
GVB:06017,06017,"Amsterdam, J.P. Heijestraat",52.364874,4.86292,0,stoparea:GVB:06016,,0,,
GVB:06019,06019,"Amsterdam, Ten Katestraat",52.365918,4.867372,0,stoparea:GVB:06019,,1,,
GVB:06020,06020,"Amsterdam, Ten Katestraat",52.366036,4.867737,0,stoparea:GVB:06019,,1,,
GVB:06021,06021,"Amsterdam, Bilderdijkstraat",52.367123,4.871762,0,stoparea:GVB:06021,,0,,
GVB:06023,06023,"Amsterdam, Bilderdijkstraat",52.36736,4.872538,0,stoparea:GVB:06021,,0,,
GVB:06024,06024,"Amsterdam, Kinkerstraat",52.367063,4.872306,0,stoparea:GVB:06021,,0,,
GVB:06025,06025,"Amsterdam, Kinkerstraat",52.36743,4.872008,0,stoparea:GVB:06021,,0,,
GVB:06027,06027,"Amsterdam, Elandsgracht",52.368087,4.878549,0,stoparea:GVB:06027,,0,,
GVB:06028,06028,"Amsterdam, Elandsgracht",52.369745,4.877414,0,stoparea:GVB:06027,,0,,
GVB:06029,06029,"Amsterdam, Elandsgracht",52.36852,4.876841,0,stoparea:GVB:06027,,0,,
GVB:06030,06030,"Amsterdam, Rozengracht",52.371878,4.875907,0,stoparea:GVB:02127,,0,,
GVB:06034,06034,"Amsterdam, Bilderdijkstraat",52.371056,4.870821,0,stoparea:GVB:02154,,1,,
GVB:06037,06037,"Amsterdam, Bilderdijkstraat",52.370827,4.869854,0,stoparea:GVB:02154,,0,,
GVB:06038,06038,"Amsterdam, De Clercqstraat",52.370614,4.8704,0,stoparea:GVB:02154,,0,,
GVB:06043,06043,"Amsterdam, Overtoom",52.362994,4.875099,0,stoparea:GVB:06043,,0,,
GVB:06044,06044,"Amsterdam, Overtoom",52.363452,4.874829,0,stoparea:GVB:06043,,1,,
GVB:06045,06045,"Amsterdam, 1e Con. Huygensstraat",52.362423,4.87399,0,stoparea:GVB:06043,,0,,
GVB:06046,06046,"Amsterdam, 1e Con. Huygensstraat",52.362625,4.874868,0,stoparea:GVB:06043,,0,,
GVB:06048,06048,"Amsterdam, J.P. Heijestraat",52.360375,4.865851,0,stoparea:GVB:06048,,0,,
GVB:06049,06049,"Amsterdam, J.P. Heijestraat",52.360549,4.866715,0,stoparea:GVB:06048,,0,,
GVB:06051,06051,"Amsterdam, Nassaukade",52.364394,4.878636,0,stoparea:GVB:06051,,,,
GVB:06055,06055,"Amsterdam, Leidseplein",52.362542,4.880712,0,stoparea:GVB:06055,,,,
GVB:06056,06056,"Amsterdam, Leidseplein",52.363175,4.879501,0,stoparea:GVB:06056,,,,
GVB:06057,06057,"Amsterdam, Stadhouderskade",52.363069,4.879884,0,stoparea:GVB:06057,,,,
GVB:06058,06058,"Amsterdam, Stadhouderskade",52.362159,4.881363,0,stoparea:GVB:06058,,,,
GVB:06059,06059,"Amsterdam, Spiegelgracht",52.360711,4.887618,0,stoparea:GVB:06059,,0,,
GVB:06061,06061,"Amsterdam, Leidseplein",52.363737,4.882725,0,stoparea:GVB:06061,,0,,
GVB:06062,06062,"Amsterdam, Leidseplein",52.363272,4.883244,0,stoparea:GVB:06061,,0,,
GVB:06068,06068,"Amsterdam, Leidseplein",52.36388,4.882532,0,stoparea:GVB:06061,,0,,
GVB:06069,06069,"Amsterdam, Leidseplein",52.363527,4.881861,0,stoparea:GVB:06061,,0,,
GVB:06071,06071,"Amsterdam, Prinsengracht",52.365094,4.884647,0,stoparea:GVB:06071,,0,,
GVB:06072,06072,"Amsterdam, Prinsengracht",52.364957,4.884282,0,stoparea:GVB:06071,,0,,
GVB:06073,06073,"Amsterdam, Keizersgracht",52.366046,4.886663,0,stoparea:GVB:06073,,0,,
GVB:06074,06074,"Amsterdam, Keizersgracht",52.365882,4.886239,0,stoparea:GVB:06073,,0,,
GVB:06075,06075,"Amsterdam, Koningsplein",52.367136,4.889425,0,stoparea:GVB:06075,,0,,
GVB:06076,06076,"Amsterdam, Koningsplein",52.36689,4.888576,0,stoparea:GVB:06075,,0,,
GVB:06081,06081,"Amsterdam, Rhijnvis Feithstraat",52.359056,4.860391,0,stoparea:GVB:06081,,0,,
GVB:06082,06082,"Amsterdam, Rhijnvis Feithstraat",52.358837,4.859674,0,stoparea:GVB:06081,,0,,
GVB:06102,06102,"Amsterdam, Elandsgracht",52.36927,4.87764,0,stoparea:GVB:06027,,0,,
GVB:06116,06116,"Amsterdam, Postjesweg",52.363958,4.853197,0,stoparea:GVB:03012,,0,,
GVB:07002,07002,"Amsterdam, Van Baerlestraat",52.358398,4.878367,0,stoparea:GVB:07002,,0,,
GVB:07003,07003,"Amsterdam, Van Baerlestraat",52.358837,4.878083,0,stoparea:GVB:07002,,0,,
GVB:07004,07004,"Amsterdam, De Boelelaan/VU",52.335344,4.865866,0,stoparea:GVB:07412,,0,,
GVB:07005,07005,"Amsterdam, De Boelelaan/VU",52.335224,4.867203,0,stoparea:GVB:07412,,0,,
GVB:07006,07006,"Amsterdam, Museumplein",52.356427,4.879798,0,stoparea:GVB:07006,,1,,
GVB:07007,07007,"Amsterdam, Museumplein",52.356902,4.879499,0,stoparea:GVB:07006,,0,,
GVB:07010,07010,"Amsterdam, Museumplein",52.355885,4.879115,0,stoparea:GVB:07006,,0,,
GVB:07011,07011,"Amsterdam, Museumplein",52.356012,4.879598,0,stoparea:GVB:07006,,0,,
GVB:07012,07012,"Amsterdam, Amstelpark",52.331701,4.890204,0,stoparea:GVB:07012,,0,,
GVB:07013,07013,"Amsterdam, Amstelpark",52.331663,4.88972,0,stoparea:GVB:07012,,0,,
GVB:07014,07014,"Amsterdam, Kastelenstraat",52.325831,4.879444,0,stoparea:GVB:07014,,0,,
GVB:07015,07015,"Amsterdam, Roelof Hartplein",52.353147,4.882067,0,stoparea:GVB:07015,,0,,
GVB:07016,07016,"Amsterdam, Roelof Hartplein",52.352746,4.882864,0,stoparea:GVB:07015,,0,,
GVB:07017,07017,"Amsterdam, Roelof Hartplein",52.352635,4.882058,0,stoparea:GVB:07015,,0,,
GVB:07019,07019,"Amsterdam, Ruysdaelstraat",52.354437,4.88534,0,stoparea:GVB:07019,,1,,
GVB:07020,07020,"Amsterdam, Ruysdaelstraat",52.354548,4.886088,0,stoparea:GVB:07019,,0,,
GVB:07021,07021,"Amsterdam, Kastelenstraat",52.326191,4.879557,0,stoparea:GVB:07014,,0,,
GVB:07027,07027,"Amsterdam, Corn. Schuytstraat",52.355973,4.870512,0,stoparea:GVB:07027,,0,,
GVB:07028,07028,"Amsterdam, Corn. Schuytstraat",52.356047,4.870878,0,stoparea:GVB:07027,,0,,
GVB:07031,07031,"Amsterdam, Valeriusplein",52.353328,4.863747,0,stoparea:GVB:07031,,0,,
GVB:07032,07032,"Amsterdam, Valeriusplein",52.353182,4.863264,0,stoparea:GVB:07031,,0,,
GVB:07033,07033,"Amsterdam, Amstelveenseweg",52.351617,4.856957,0,stoparea:GVB:07033,,0,,
GVB:07034,07034,"Amsterdam, Amstelveenseweg",52.351325,4.855962,0,stoparea:GVB:07033,,0,,
GVB:07035,07035,"Amsterdam, Zeilstraat",52.351238,4.856726,0,stoparea:GVB:07033,,1,,
GVB:07044,07044,"Amsterdam, Haarlemmermeerstraat",52.355371,4.850438,0,stoparea:GVB:07044,,0,,
GVB:07045,07045,"Amsterdam, Haarlemmermeerstraat",52.355119,4.850236,0,stoparea:GVB:07044,,0,,
GVB:07046,07046,"Amsterdam, Hoofddorpplein",52.35201,4.850479,0,stoparea:GVB:04104,,0,,
GVB:07048,07048,"Amsterdam, Hoofddorpplein",52.351541,4.850103,0,stoparea:GVB:04104,,0,,
GVB:07049,07049,"Amsterdam, Hoofddorpplein",52.35117,4.849579,0,stoparea:GVB:04104,,0,,
GVB:07057,07057,"Amsterdam, Haarl'meerstation",52.34912,4.857295,0,stoparea:GVB:07056,,0,,
GVB:07058,07058,"Amsterdam, Haarl'meerstation",52.34902,4.85712,0,stoparea:GVB:07056,,0,,
GVB:07059,07059,"Amsterdam, Haarl'meerstation",52.349039,4.857252,0,stoparea:GVB:07056,,0,,
GVB:07061,07061,"Amsterdam, Haarl'meerstation",52.348941,4.857502,0,stoparea:GVB:07056,,0,,
GVB:07062,07062,"Amsterdam, Haarl'meerstation",52.34922,4.857543,0,stoparea:GVB:07056,,0,,
GVB:07065,07065,"Amsterdam, Valeriusplein",52.351604,4.864163,0,stoparea:GVB:07065,,0,,
GVB:07066,07066,"Amsterdam, Valeriusplein",52.351869,4.86507,0,stoparea:GVB:07065,,0,,
GVB:07069,07069,"Amsterdam, Emmastraat",52.352967,4.869666,0,stoparea:GVB:07069,,0,,
GVB:07070,07070,"Amsterdam, Emmastraat",52.353176,4.870133,0,stoparea:GVB:07069,,0,,
GVB:07073,07073,"Amsterdam, Jac. Obrechtstraat",52.35473,4.876031,0,stoparea:GVB:07073,,0,,
GVB:07074,07074,"Amsterdam, Jac. Obrechtstraat",52.354876,4.876499,0,stoparea:GVB:07073,,0,,
GVB:07083,07083,"Amsterdam, Gerrit v.d. Veenstraat",52.349208,4.877357,0,stoparea:GVB:07083,,0,,
GVB:07084,07084,"Amsterdam, Gerrit v.d. Veenstraat",52.348866,4.877199,0,stoparea:GVB:07083,,0,,
GVB:07087,07087,"Amsterdam, Stadionweg",52.347148,4.876881,0,stoparea:GVB:07087,,0,,
GVB:07088,07088,"Amsterdam, Stadionweg",52.346653,4.876872,0,stoparea:GVB:07087,,1,,
GVB:07091,07091,"Amsterdam, Minervaplein",52.346771,4.872997,0,stoparea:GVB:07091,,0,,
GVB:07094,07094,"Amsterdam, Minervaplein",52.346695,4.872043,0,stoparea:GVB:07091,,0,,
GVB:07097,07097,"Amsterdam, Olympiaplein",52.3463,4.865826,0,stoparea:GVB:07097,,0,,
GVB:07098,07098,"Amsterdam, Olympiaplein",52.346366,4.866588,0,stoparea:GVB:07097,,0,,
GVB:07108,07108,"Amsterdam, Olympiaweg",52.34528,4.858735,0,stoparea:GVB:07108,,0,,
GVB:07109,07109,"Amsterdam, Oldenaller",52.332027,4.86366,0,stoparea:GVB:07109,,,,
GVB:07110,07110,"Amsterdam, Lex van Deldenbrug",52.334942,4.872708,0,stoparea:GVB:07110,,,,
GVB:07111,07111,"Amsterdam, Lex van Deldenbrug",52.335034,4.873059,0,stoparea:GVB:07111,,,,
GVB:07116,07116,"Amsterdam, Haarl'meerstation",52.349238,4.857601,0,stoparea:GVB:07056,,0,,
GVB:07120,07120,"Amsterdam, Olympiaweg",52.34526,4.858339,0,stoparea:GVB:07108,,0,,
GVB:07121,07121,"Amsterdam, Olympisch Stadion",52.343807,4.856962,0,stoparea:GVB:07121,,0,,
GVB:07122,07122,"Amsterdam, Gelderlandplein Nrd.",52.332065,4.876644,0,stoparea:GVB:07122,,0,,
GVB:07123,07123,"Amsterdam, Gelderlandplein Nrd.",52.332154,4.876364,0,stoparea:GVB:07122,,0,,
GVB:07124,07124,"Amsterdam, A.J. Ernststraat",52.332026,4.869764,0,stoparea:GVB:07416,,0,,
GVB:07125,07125,"Amsterdam, A.J. Ernststraat",52.332116,4.869763,0,stoparea:GVB:07416,,0,,
GVB:07130,07130,"Amsterdam, Pr. Irenestraat",52.342023,4.868194,0,stoparea:GVB:07130,,1,,
GVB:07131,07131,"Amsterdam, Pr. Irenestraat",52.34303,4.868329,0,stoparea:GVB:07130,,1,,
GVB:07132,07132,"Amsterdam, De Boelelaan",52.33511,4.867835,0,stoparea:GVB:07412,,1,,
GVB:07133,07133,"Amsterdam, De Boelelaan",52.334965,4.867543,0,stoparea:GVB:07412,,0,,
GVB:07137,07137,"Amsterdam, Egelenburg",52.328693,4.861881,0,stoparea:GVB:07137,,0,,
GVB:07150,07150,"Amsterdam, Europaboulevard",52.333991,4.889738,0,stoparea:GVB:07150,,1,,
GVB:07151,07151,"Amsterdam, Europaboulevard",52.335196,4.890106,0,stoparea:GVB:07150,,0,,
GVB:07157,07157,"Amsterdam, Van Heenvlietlaan",52.324898,4.881992,0,stoparea:GVB:07157,,0,,
GVB:07158,07158,"Amsterdam, Van Heenvlietlaan",52.324859,4.883342,0,stoparea:GVB:07157,,0,,
GVB:07161,07161,"Amsterdam, Backershagen",52.324805,4.877006,0,stoparea:GVB:07161,,0,,
GVB:07164,07164,"Amsterdam, Bolestein",52.325089,4.859767,0,stoparea:GVB:07164,,,,
GVB:07165,07165,"Amsterdam, Van Boshuizenstraat",52.324041,4.868815,0,stoparea:GVB:07420,,0,,
GVB:07166,07166,"Amsterdam, Noordhollandstraat",52.32362,4.865006,0,stoparea:GVB:07166,,1,,
GVB:07168,07168,"Amsterdam, V. d. Boechorststraat",52.323613,4.861369,0,stoparea:GVB:07168,,1,,
GVB:07170,07170,"Amsterdam, Van Nijenrodeweg",52.32823,4.86906,0,stoparea:GVB:07170,,0,,
GVB:07171,07171,"Amsterdam, Van Nijenrodeweg",52.327357,4.868659,0,stoparea:GVB:07170,,0,,
GVB:07186,07186,"Amsterdam, Pr. Irenestraat",52.3426,4.876772,0,stoparea:GVB:07186,,1,,
GVB:07187,07187,"Amsterdam, Pr. Irenestraat",52.34313,4.876781,0,stoparea:GVB:07186,,1,,
GVB:07191,07191,"Amsterdam, Station Zuid",52.340724,4.873404,0,stoparea:GVB:07191,,1,,
GVB:07192,07192,"Amsterdam, Station Zuid",52.340884,4.872874,0,stoparea:GVB:07191,,1,,
GVB:07196,07196,"Amsterdam, W. v.Weldammelaan",52.335042,4.876947,0,stoparea:GVB:07195,,0,,
GVB:07197,07197,"Amstelveen, Oranjebaan",52.302901,4.87063,0,stoparea:GVB:07440,,0,,
GVB:07198,07198,"Amstelveen, Oranjebaan",52.303488,4.873336,0,stoparea:GVB:07440,,0,,
GVB:07200,07200,"Amsterdam, Gustav Mahlerplein",52.336609,4.873628,0,stoparea:GVB:07200,,,,
GVB:07202,07202,"Amsterdam, Olympisch Stadion",52.344049,4.856842,0,stoparea:GVB:07121,,1,,
GVB:07205,07205,"Amsterdam, IJsbaanpad",52.341689,4.857735,0,stoparea:GVB:07205,,0,,
GVB:07207,07207,"Amsterdam, IJsbaanpad",52.340511,4.857559,0,stoparea:GVB:07205,,0,,
GVB:07220,07220,"Amsterdam, Van Nijenrodeweg",52.326759,4.857547,0,stoparea:GVB:07220,,1,,
GVB:07242,07242,"Amstelveen, Uilenstede",52.322165,4.86938,0,stoparea:GVB:07424,,0,,
GVB:07244,07244,"Amstelveen, Uilenstede",52.321795,4.868915,0,stoparea:GVB:07424,,1,,
GVB:07247,07247,"Amsterdam, Hogewerf",52.334189,4.879378,0,stoparea:GVB:07247,,0,,
GVB:07248,07248,"Amsterdam, Hogewerf",52.334574,4.878933,0,stoparea:GVB:07247,,0,,
GVB:07258,07258,"Amsterdam, Drentepark",52.33611,4.889362,0,stoparea:GVB:07258,,0,,
GVB:07260,07260,"Amsterdam, Station RAI",52.337087,4.890775,0,stoparea:GVB:07404,,0,,
GVB:07261,07261,"Amsterdam, Station RAI",52.33696,4.890688,0,stoparea:GVB:07404,,0,,
GVB:07268,07268,"Amsterdam, Station Zuid",52.340818,4.874283,0,stoparea:GVB:07191,,0,,
GVB:07269,07269,"Amsterdam, Station Zuid",52.340825,4.87374,0,stoparea:GVB:07191,,0,,
GVB:07270,07270,"Amsterdam, Parnassusweg",52.338062,4.868739,0,stoparea:GVB:07270,,1,,
GVB:07271,07271,"Amsterdam, Parnassusweg",52.338178,4.868665,0,stoparea:GVB:07270,,0,,
GVB:07299,07299,"Amsterdam, Gelderlandplein Oost",52.330954,4.879591,0,stoparea:GVB:07299,,0,,
GVB:07300,07300,"Amsterdam, Gelderlandplein Oost",52.330756,4.879373,0,stoparea:GVB:07299,,0,,
GVB:07301,07301,"Amsterdam, Gelderlandplein NO",52.331888,4.879213,0,stoparea:GVB:07301,,,,
GVB:07303,07303,"Amsterdam, VU medisch centrum",52.335151,4.860968,0,stoparea:GVB:07303,,0,,
GVB:07307,07307,"Amsterdam, Beethovenstraat",52.347001,4.878204,0,stoparea:GVB:07087,,0,,
GVB:07308,07308,"Amsterdam, Beethovenstraat",52.346867,4.876327,0,stoparea:GVB:07087,,0,,
GVB:07309,07309,"Amsterdam, Apollolaan",52.348167,4.881874,0,stoparea:GVB:07309,,0,,
GVB:07310,07310,"Amsterdam, Apollolaan",52.348159,4.882109,0,stoparea:GVB:07309,,0,,
GVB:07311,07311,"Amsterdam, Ruysdaelkade",52.360239,4.886537,0,stoparea:GVB:07311,,0,,
GVB:07312,07312,"Amsterdam, Ruysdaelkade",52.360303,4.886683,0,stoparea:GVB:07311,,0,,
GVB:07321,07321,"Amsterdam, Van Baerlestraat",52.358275,4.878955,0,stoparea:GVB:07002,,0,,
GVB:07322,07322,"Amsterdam, Van Baerlestraat",52.35844,4.879717,0,stoparea:GVB:07002,,0,,
GVB:07323,07323,"Amsterdam, Rijksmuseum",52.359768,4.883548,0,stoparea:GVB:07323,,0,,
GVB:07324,07324,"Amsterdam, Rijksmuseum",52.360172,4.883323,0,stoparea:GVB:07323,,1,,
GVB:07331,07331,"Amsterdam, Bouvigne",52.327923,4.883117,0,stoparea:GVB:07331,,1,,
GVB:07332,07332,"Amsterdam, Bouvigne",52.328066,4.882939,0,stoparea:GVB:07331,,1,,
GVB:07339,07339,"Amsterdam, Nieuw Herlaer",52.326019,4.889857,0,stoparea:GVB:07339,,0,,
GVB:07340,07340,"Amsterdam, Nieuw Herlaer",52.325913,4.890313,0,stoparea:GVB:07339,,0,,
GVB:07342,07342,"Amsterdam, Amstelveenseweg",52.33846,4.857202,0,stoparea:GVB:07342,,1,,
GVB:07343,07343,"Amsterdam, Amstelveenseweg",52.338365,4.857981,0,stoparea:GVB:07342,,1,,
GVB:07350,07350,"Amsterdam, VU medisch centrum",52.335192,4.860058,0,stoparea:GVB:07303,,1,,
GVB:07400,07400,"Amsterdam, Overamstel",52.331569,4.917273,0,stoparea:GVB:07400,,1,,
GVB:07401,07401,"Amsterdam, Overamstel",52.331649,4.917214,0,stoparea:GVB:07400,,1,,
GVB:07404,07404,"Amsterdam, Station RAI",52.337397,4.889817,0,stoparea:GVB:07404,,1,,
GVB:07405,07405,"Amsterdam, Station RAI",52.33788,4.88921,0,stoparea:GVB:07404,,1,,
GVB:07408,07408,"Amsterdam, Station Zuid",52.339166,4.874713,0,stoparea:GVB:07408,,1,,
GVB:07409,07409,"Amsterdam, Station Zuid",52.339315,4.873758,0,stoparea:GVB:07408,,1,,
GVB:07410,07410,"Amsterdam, De Boelelaan/VU",52.3348,4.868866,0,stoparea:GVB:07412,,1,,
GVB:07411,07411,"Amsterdam, De Boelelaan/VU",52.334548,4.86881,0,stoparea:GVB:07412,,1,,
GVB:07412,07412,"Amsterdam, De Boelelaan/VU",52.334404,4.868856,0,stoparea:GVB:07412,,1,,
GVB:07413,07413,"Amsterdam, De Boelelaan/VU",52.333946,4.868802,0,stoparea:GVB:07412,,1,,
GVB:07414,07414,"Amsterdam, A.J. Ernststraat",52.331825,4.868871,0,stoparea:GVB:07416,,1,,
GVB:07415,07415,"Amsterdam, A.J. Ernststraat",52.331627,4.868815,0,stoparea:GVB:07416,,1,,
GVB:07416,07416,"Amsterdam, A.J. Ernststraat",52.331492,4.868875,0,stoparea:GVB:07416,,1,,
GVB:07417,07417,"Amsterdam, A.J. Ernststraat",52.331043,4.868821,0,stoparea:GVB:07416,,1,,
GVB:07418,07418,"Amsterdam, Van Boshuizenstraat",52.325094,4.869023,0,stoparea:GVB:07420,,1,,
GVB:07419,07419,"Amsterdam, Van Boshuizenstraat",52.324878,4.868967,0,stoparea:GVB:07420,,1,,
GVB:07420,07420,"Amsterdam, Van Boshuizenstraat",52.325633,4.868987,0,stoparea:GVB:07420,,1,,
GVB:07421,07421,"Amsterdam, Van Boshuizenstraat",52.325192,4.868948,0,stoparea:GVB:07420,,1,,
GVB:07422,07422,"Amstelveen, Uilenstede",52.321392,4.869242,0,stoparea:GVB:07424,,1,,
GVB:07423,07423,"Amstelveen, Uilenstede",52.321157,4.869113,0,stoparea:GVB:07424,,1,,
GVB:07424,07424,"Amstelveen, Uilenstede",52.322003,4.869206,0,stoparea:GVB:07424,,1,,
GVB:07425,07425,"Amstelveen, Uilenstede",52.321508,4.869094,0,stoparea:GVB:07424,,1,,
GVB:07426,07426,"Amstelveen, Kronenburg",52.316399,4.8704,0,stoparea:GVB:07428,,1,,
GVB:07427,07427,"Amstelveen, Kronenburg",52.316175,4.870447,0,stoparea:GVB:07428,,1,,
GVB:07428,07428,"Amstelveen, Kronenburg",52.316955,4.87013,0,stoparea:GVB:07428,,1,,
GVB:07429,07429,"Amstelveen, Kronenburg",52.316489,4.870297,0,stoparea:GVB:07428,,1,,
GVB:07430,07430,"Amstelveen, Zonnestein",52.312399,4.87225,0,stoparea:GVB:07432,,1,,
GVB:07431,07431,"Amstelveen, Zonnestein",52.312102,4.872269,0,stoparea:GVB:07432,,1,,
GVB:07432,07432,"Amstelveen, Zonnestein",52.312901,4.872054,0,stoparea:GVB:07432,,1,,
GVB:07433,07433,"Amstelveen, Zonnestein",52.312479,4.872176,0,stoparea:GVB:07432,,1,,
GVB:07434,07434,"Amstelveen, Onderuit",52.307772,4.872597,0,stoparea:GVB:07436,,1,,
GVB:07436,07436,"Amstelveen, Onderuit",52.308185,4.872593,0,stoparea:GVB:07436,,1,,
GVB:07437,07437,"Amstelveen, Onderuit",52.307933,4.872434,0,stoparea:GVB:07436,,1,,
GVB:07438,07438,"Amstelveen, Oranjebaan",52.302996,4.87192,0,stoparea:GVB:07440,,1,,
GVB:07439,07439,"Amstelveen, Oranjebaan",52.302752,4.871629,0,stoparea:GVB:07440,,1,,
GVB:07440,07440,"Amstelveen, Oranjebaan",52.303555,4.872192,0,stoparea:GVB:07440,,1,,
GVB:07441,07441,"Amstelveen, Oranjebaan",52.303131,4.87183,0,stoparea:GVB:07440,,1,,
GVB:07445,07445,"Amstelveen, Binnenhof",52.301242,4.867512,0,stoparea:GVB:07445,,1,,
GVB:07450,07450,"Amstelveen, Amstelveen Centrum",52.300157,4.870061,0,stoparea:GVB:07450,,1,,
GVB:07451,07451,"Amstelveen, Amstelveen Centrum",52.299742,4.869641,0,stoparea:GVB:07450,,1,,
GVB:07454,07454,"Amstelveen, Ouderkerkerlaan",52.296507,4.867788,0,stoparea:GVB:07454,,1,,
GVB:07455,07455,"Amstelveen, Ouderkerkerlaan",52.296037,4.867339,0,stoparea:GVB:07454,,1,,
GVB:07458,07458,"Amstelveen, Sportlaan",52.290982,4.864261,0,stoparea:GVB:07458,,1,,
GVB:07459,07459,"Amstelveen, Sportlaan",52.290495,4.863871,0,stoparea:GVB:07458,,1,,
GVB:07462,07462,"Amstelveen, Marne",52.287213,4.861594,0,stoparea:GVB:07462,,1,,
GVB:07463,07463,"Amstelveen, Marne",52.286744,4.861145,0,stoparea:GVB:07462,,1,,
GVB:07466,07466,"Amstelveen, Gondel",52.284732,4.859513,0,stoparea:GVB:07466,,1,,
GVB:07467,07467,"Amstelveen, Gondel",52.284299,4.859152,0,stoparea:GVB:07466,,1,,
GVB:07470,07470,"Amstelveen, Meent",52.28128,4.857458,0,stoparea:GVB:07470,,1,,
GVB:07471,07471,"Amstelveen, Meent",52.280874,4.856936,0,stoparea:GVB:07470,,1,,
GVB:07474,07474,"Amstelveen, Brink",52.280484,4.852148,0,stoparea:GVB:07474,,1,,
GVB:07475,07475,"Amstelveen, Brink",52.280624,4.851399,0,stoparea:GVB:07474,,1,,
GVB:07478,07478,"Amstelveen, Poortwachter",52.283328,4.845094,0,stoparea:GVB:07478,,1,,
GVB:07479,07479,"Amstelveen, Poortwachter",52.283133,4.845844,0,stoparea:GVB:07478,,1,,
GVB:07490,07490,"Amsterdam, Amstelveenseweg",52.338092,4.857309,0,stoparea:GVB:07342,,0,,
GVB:07493,07493,"Amsterdam, Amstelveenseweg",52.338343,4.857247,0,stoparea:GVB:07342,,0,,
GVB:07495,07495,"Amsterdam, Amstelveenseweg",52.339123,4.858749,0,stoparea:GVB:07495,,1,,
GVB:07496,07496,"Amstelveen, Spinnerij",52.284125,4.838622,0,stoparea:GVB:07496,,1,,
GVB:07497,07497,"Amstelveen, Spinnerij",52.284319,4.837872,0,stoparea:GVB:07496,,1,,
GVB:07498,07498,"Amstelveen, Sacharovlaan",52.282569,4.832764,0,stoparea:GVB:07498,,1,,
GVB:07499,07499,"Amstelveen, Sacharovlaan",52.282172,4.832315,0,stoparea:GVB:07498,,1,,
GVB:07500,07500,"Amstelveen, Westwijk",52.274742,4.830987,0,stoparea:GVB:07500,,1,,
GVB:07501,07501,"Amstelveen, Westwijk",52.274344,4.830523,0,stoparea:GVB:07500,,1,,
GVB:07530,07530,"Amstelveen, Stadstuinen",52.302046,4.868441,0,stoparea:GVB:07530,,1,,
GVB:07531,07531,"Amstelveen, Stadstuinen",52.301946,4.868208,0,stoparea:GVB:07530,,1,,
GVB:07532,07532,"Amstelveen, Binnenhof",52.301269,4.863495,0,stoparea:GVB:07532,,1,,
GVB:07533,07533,"Amstelveen, Binnenhof",52.30151,4.863096,0,stoparea:GVB:07532,,1,,
GVB:07544,07544,"Amstelveen, Zonnestein",52.311428,4.872144,0,stoparea:GVB:07432,,1,,
GVB:07545,07545,"Amstelveen, Onderuit",52.307941,4.872273,0,stoparea:GVB:07436,,0,,
GVB:07557,07557,"Amstelveen, Kronenburg",52.31612,4.870227,0,stoparea:GVB:07428,,1,,
GVB:07558,07558,"Amstelveen, Kronenburg",52.3164,4.87062,0,stoparea:GVB:07428,,1,,
GVB:07590,07590,"Amstelveen, Zonnestein",52.312202,4.872429,0,stoparea:GVB:07432,,0,,
GVB:07623,07623,"Amstelveen, Onderuit",52.308447,4.872795,0,stoparea:GVB:07436,,0,,
GVB:07963,07963,"Amstelveen, A'veen Busstation",52.30233,4.857427,0,stoparea:GVB:07535,,1,B,
GVB:08004,08004,"Amsterdam, Piet Heinkade",52.377433,4.912719,0,stoparea:GVB:08003,,,,
GVB:08005,08005,"Amsterdam, Kattenburg",52.376123,4.92247,0,stoparea:GVB:08005,,0,,
GVB:08006,08006,"Amsterdam, Kattenburg",52.376476,4.920718,0,stoparea:GVB:08005,,,,
GVB:08007,08007,"Amsterdam, Bob Haarmslaan",52.368766,4.96921,0,stoparea:GVB:08007,,0,,
GVB:08009,08009,"Amsterdam, Bob Haarmslaan",52.36915,4.968589,0,stoparea:GVB:08009,,0,,
GVB:08011,08011,"Amsterdam, C. van Eesterenlaan",52.373345,4.938549,0,stoparea:GVB:08011,,1,,
GVB:08012,08012,"Amsterdam, C. van Eesterenlaan",52.373562,4.938855,0,stoparea:GVB:08011,,1,,
GVB:08013,08013,"Amsterdam, Azartplein",52.376558,4.937342,0,stoparea:GVB:08013,,0,,
GVB:08014,08014,"Amsterdam, Azartplein",52.376828,4.937354,0,stoparea:GVB:08013,,1,,
GVB:08021,08021,"Amsterdam, Bob Haarmslaan",52.369088,4.968942,0,stoparea:GVB:08021,,0,,
GVB:08022,08022,"Amsterdam, Bob Haarmslaan",52.370019,4.96792,0,stoparea:GVB:08022,,0,,
GVB:08023,08023,"Amsterdam, Wittenburgergracht",52.369133,4.920796,0,stoparea:GVB:08023,,0,,
GVB:08024,08024,"Amsterdam, Wittenburgergracht",52.369346,4.919971,0,stoparea:GVB:08023,,0,,
GVB:08025,08025,"Amsterdam, Kattenburgerplein",52.370795,4.915962,0,stoparea:GVB:08025,,0,,
GVB:08026,08026,"Amsterdam, Kattenburgerplein",52.370545,4.916405,0,stoparea:GVB:08025,,0,,
GVB:08027,08027,"Amsterdam, Kadijksplein",52.370749,4.913569,0,stoparea:GVB:08027,,1,,
GVB:08028,08028,"Amsterdam, Kadijksplein",52.370991,4.913273,0,stoparea:GVB:08027,,1,,
GVB:08030,08030,"Amsterdam, Prins Hendrikkade",52.373828,4.905782,0,stoparea:GVB:08029,,0,,
GVB:08031,08031,"Amsterdam, Prins Hendrikkade",52.374479,4.904557,0,stoparea:GVB:08029,,0,,
GVB:08032,08032,"Amsterdam, Kattenburgerstraat",52.372547,4.918205,0,stoparea:GVB:08032,,0,,
GVB:08034,08034,"Amsterdam, Prins Hendrikkade",52.376852,4.902387,0,stoparea:GVB:08029,,0,,
GVB:08036,08036,"Amsterdam, Borneolaan",52.372095,4.938312,0,stoparea:GVB:08036,,0,,
GVB:08037,08037,"Amsterdam, Borneolaan",52.371997,4.938607,0,stoparea:GVB:08036,,0,,
GVB:08041,08041,"Amsterdam, Kattenburgerstraat",52.373136,4.919344,0,stoparea:GVB:08032,,0,,
GVB:08042,08042,"Amsterdam, Artis",52.366766,4.910807,0,stoparea:GVB:08042,,0,,
GVB:08043,08043,"Amsterdam, Artis",52.366534,4.911412,0,stoparea:GVB:08042,,0,,
GVB:08044,08044,"Amsterdam, Flevopark",52.365161,4.951493,0,stoparea:GVB:08044,,0,,
GVB:08046,08046,"Amsterdam, Plantage Lepellaan",52.36522,4.915287,0,stoparea:GVB:08045,,0,,
GVB:08047,08047,"Amsterdam, Flevopark",52.365221,4.950847,0,stoparea:GVB:08044,,0,,
GVB:08048,08048,"Amsterdam, C.v. Eesterenlaan",52.37382,4.938074,0,stoparea:GVB:08048,,,,
GVB:08049,08049,"Amsterdam, Alexanderplein",52.363833,4.919163,0,stoparea:GVB:08049,,0,,
GVB:08050,08050,"Amsterdam, Alexanderplein",52.363409,4.918668,0,stoparea:GVB:08049,,0,,
GVB:08051,08051,"Amsterdam, K. 's-Gravesandestr.",52.362355,4.913659,0,stoparea:GVB:08051,,0,,
GVB:08052,08052,"Amsterdam, K. 's-Gravesandestr.",52.362713,4.915505,0,stoparea:GVB:08051,,0,,
GVB:08053,08053,"Amsterdam, Weesperplein",52.360879,4.906554,0,stoparea:GVB:09510,,0,,
GVB:08054,08054,"Amsterdam, Weesperplein",52.361457,4.909411,0,stoparea:GVB:09510,,0,,
GVB:08058,08058,"Amsterdam, Veelaan",52.368307,4.939613,0,stoparea:GVB:08058,,1,,
GVB:08059,08059,"Amsterdam, Veelaan",52.367758,4.939443,0,stoparea:GVB:08058,,1,,
GVB:08060,08060,"Amsterdam, Keizersgracht",52.363677,4.898332,0,stoparea:GVB:08060,,0,,
GVB:08061,08061,"Amsterdam, Keizersgracht",52.363937,4.898285,0,stoparea:GVB:08060,,0,,
GVB:08062,08062,"Amsterdam, Prinsengracht",52.361981,4.898996,0,stoparea:GVB:08062,,1,,
GVB:08063,08063,"Amsterdam, Prinsengracht",52.362241,4.898935,0,stoparea:GVB:08062,,1,,
GVB:08064,08064,"Amsterdam, Frederiksplein",52.359887,4.89899,0,stoparea:GVB:08064,,0,,
GVB:08065,08065,"Amsterdam, Frederiksplein",52.360257,4.899368,0,stoparea:GVB:08064,,0,,
GVB:08066,08066,"Amsterdam, Frederiksplein",52.359368,4.897513,0,stoparea:GVB:08064,,0,,
GVB:08067,08067,"Amsterdam, Frederiksplein",52.359425,4.898188,0,stoparea:GVB:08064,,1,,
GVB:08072,08072,"Amsterdam, Weteringcircuit",52.359533,4.891595,0,stoparea:GVB:08072,,0,,
GVB:08073,08073,"Amsterdam, Weteringcircuit",52.359463,4.892271,0,stoparea:GVB:08072,,0,,
GVB:08076,08076,"Amsterdam, Weteringcircuit",52.360294,4.891117,0,stoparea:GVB:08072,,0,,
GVB:08078,08078,"Amsterdam, Weteringcircuit",52.359061,4.890587,0,stoparea:GVB:08072,,0,,
GVB:08080,08080,"Amsterdam, Spiegelgracht",52.361068,4.88691,0,stoparea:GVB:06059,,0,,
GVB:08083,08083,"Amsterdam, Jan Schaeferbrug",52.376579,4.921936,0,stoparea:GVB:08083,,0,,
GVB:08084,08084,"Amsterdam, Jan Schaeferbrug",52.376525,4.921702,0,stoparea:GVB:08083,,0,,
GVB:08086,08086,"Amsterdam, Keizersgracht",52.364165,4.892439,0,stoparea:GVB:08086,,0,,
GVB:08087,08087,"Amsterdam, Keizersgracht",52.364561,4.892625,0,stoparea:GVB:08086,,0,,
GVB:08094,08094,"Amsterdam, Wijttenbachstraat",52.359795,4.925474,0,stoparea:GVB:00014,,0,,
GVB:08095,08095,"Amsterdam, Alexanderplein",52.363413,4.919696,0,stoparea:GVB:08049,,1,,
GVB:08096,08096,"Amsterdam, Alexanderplein",52.36351,4.919313,0,stoparea:GVB:08049,,1,,
GVB:08097,08097,"Amsterdam, 1e v.Swindenstraat",52.361686,4.924118,0,stoparea:GVB:08097,,0,,
GVB:08098,08098,"Amsterdam, 1e v.Swindenstraat",52.362108,4.923864,0,stoparea:GVB:08097,,1,,
GVB:08103,08103,"Amsterdam, Pontanusstraat",52.365926,4.928097,0,stoparea:GVB:08103,,0,,
GVB:08104,08104,"Amsterdam, Pontanusstraat",52.365923,4.927231,0,stoparea:GVB:08103,,0,,
GVB:08107,08107,"Amsterdam, Zeeburgerdijk",52.365702,4.93293,0,stoparea:GVB:08107,,0,,
GVB:08108,08108,"Amsterdam, Zeeburgerdijk",52.365916,4.932458,0,stoparea:GVB:08107,,0,,
GVB:08110,08110,"Amsterdam, Javaplein",52.364052,4.938555,0,stoparea:GVB:08110,,1,,
GVB:08111,08111,"Amsterdam, Javaplein",52.364177,4.938245,0,stoparea:GVB:08110,,1,,
GVB:08113,08113,"Amsterdam, Javaplein",52.363957,4.939496,0,stoparea:GVB:08110,,1,,
GVB:08114,08114,"Amsterdam, Javaplein",52.364119,4.939553,0,stoparea:GVB:08110,,1,,
GVB:08119,08119,"Amsterdam, Insulindeweg",52.36476,4.947651,0,stoparea:GVB:08119,,0,,
GVB:08120,08120,"Amsterdam, Insulindeweg",52.364688,4.947637,0,stoparea:GVB:08119,,0,,
GVB:08121,08121,"Amsterdam, Soembawastraat",52.362248,4.943917,0,stoparea:GVB:08121,,0,,
GVB:08124,08124,"Amsterdam, Soembawastraat",52.362147,4.943463,0,stoparea:GVB:08121,,0,,
GVB:08129,08129,"Amsterdam, Molukkenstraat",52.3615,4.93861,0,stoparea:GVB:08129,,0,,
GVB:08131,08131,"Amsterdam, Valentijnkade",52.358838,4.940736,0,stoparea:GVB:08131,,0,,
GVB:08132,08132,"Amsterdam, Valentijnkade",52.359,4.940793,0,stoparea:GVB:08131,,0,,
GVB:08133,08133,"Amsterdam, Zuiderzeeweg",52.371097,4.962492,0,stoparea:GVB:08133,,0,,
GVB:08134,08134,"Amsterdam, Zuiderzeeweg",52.371392,4.962254,0,stoparea:GVB:08133,,0,,
GVB:08174,08174,"Amsterdam, Weesperplein",52.362078,4.90729,0,stoparea:GVB:08174,,,,
GVB:08179,08179,"Amsterdam, K. 's-Gravesandestr.",52.362198,4.914805,0,stoparea:GVB:08051,,0,,
GVB:08183,08183,"Amsterdam, Het Funen",52.367459,4.931605,0,stoparea:GVB:08183,,0,,
GVB:08184,08184,"Amsterdam, Het Funen",52.367483,4.930871,0,stoparea:GVB:08183,,0,,
GVB:08190,08190,"Amsterdam, Molukkenstraat",52.361574,4.939343,0,stoparea:GVB:08129,,0,,
GVB:08196,08196,"Amsterdam, Oostenburgergracht",52.367712,4.92498,0,stoparea:GVB:08196,,1,,
GVB:08197,08197,"Amsterdam, Oostenburgergracht",52.368315,4.922948,0,stoparea:GVB:08196,,0,,
GVB:08204,08204,"Amsterdam, Oostelijke Handelskade",52.375229,4.930483,0,stoparea:GVB:08204,,,,
GVB:08206,08206,"Amsterdam, Oostelijke Handelskade",52.375068,4.930778,0,stoparea:GVB:08206,,,,
GVB:08207,08207,"Amsterdam, Levantplein",52.377073,4.942858,0,stoparea:GVB:08207,,0,,
GVB:08208,08208,"Amsterdam, Levantplein",52.377116,4.942388,0,stoparea:GVB:08207,,1,,
GVB:08209,08209,"Amsterdam, KNSM-laan",52.377076,4.946016,0,stoparea:GVB:08209,,0,,
GVB:08216,08216,"Amsterdam, Borneolaan",52.370567,4.938357,0,stoparea:GVB:08216,,1,,
GVB:08219,08219,"Amsterdam, Borneolaan",52.370901,4.938618,0,stoparea:GVB:08216,,1,,
GVB:08221,08221,"Amsterdam, Tosaristraat",52.379749,4.92346,0,stoparea:GVB:08221,,,,
GVB:08222,08222,"Amsterdam, Peter Martensstraat",52.348819,5.013911,0,stoparea:GVB:08222,,1,,
GVB:08223,08223,"Amsterdam, Peter Martensstraat",52.34855,5.014207,0,stoparea:GVB:08222,,1,,
GVB:08224,08224,"Amsterdam, Tosaristraat",52.379343,4.923082,0,stoparea:GVB:08224,,0,,
GVB:08225,08225,"Amsterdam, Majanggracht",52.379044,4.929342,0,stoparea:GVB:08225,,1,,
GVB:08226,08226,"Amsterdam, Majanggracht",52.378683,4.931358,0,stoparea:GVB:08225,,1,,
GVB:08229,08229,"Amsterdam, Tosaristraat",52.379487,4.923095,0,stoparea:GVB:08224,,1,,
GVB:08232,08232,"Amsterdam, IJ tunnel",52.37227,4.909559,0,stoparea:GVB:08232,,1,,
GVB:08233,08233,"Amsterdam, C. van Eesterenlaan",52.373451,4.938122,0,stoparea:GVB:08011,,0,,
GVB:08234,08234,"Amsterdam, Muziekgeb. Bimhuis",52.377237,4.913162,0,stoparea:GVB:08234,,1,,
GVB:08235,08235,"Amsterdam, Muziekgeb. Bimhuis",52.377236,4.912898,0,stoparea:GVB:08234,,1,,
GVB:08236,08236,"Amsterdam, Kattenburgerstraat",52.376077,4.92203,0,stoparea:GVB:08083,,1,,
GVB:08237,08237,"Amsterdam, Kattenburgerstraat",52.376145,4.921265,0,stoparea:GVB:08083,,1,,
GVB:08238,08238,"Amsterdam, Rietlandpark",52.373218,4.933499,0,stoparea:GVB:08238,,0,,
GVB:08239,08239,"Amsterdam, Rietlandpark",52.37296,4.934133,0,stoparea:GVB:08238,,0,,
GVB:08240,08240,"Amsterdam, Zuiderzeeweg",52.372125,4.96116,0,stoparea:GVB:08133,,1,,
GVB:08241,08241,"Amsterdam, Zuiderzeeweg",52.37193,4.961852,0,stoparea:GVB:08133,,1,,
GVB:08244,08244,"Amsterdam, Steigereiland",52.362802,4.980835,0,stoparea:GVB:08244,,1,,
GVB:08245,08245,"Amsterdam, Steigereiland",52.363133,4.980127,0,stoparea:GVB:08244,,1,,
GVB:08246,08246,"Amsterdam, Vennepluimstraat",52.357489,4.991041,0,stoparea:GVB:08246,,1,,
GVB:08247,08247,"Amsterdam, Vennepluimstraat",52.357695,4.99057,0,stoparea:GVB:08246,,1,,
GVB:08248,08248,"Amsterdam, Diemerparklaan",52.355122,4.995466,0,stoparea:GVB:08248,,1,,
GVB:08249,08249,"Amsterdam, Diemerparklaan",52.355328,4.994994,0,stoparea:GVB:08248,,1,,
GVB:08250,08250,"Amsterdam, Lumierestraat",52.352764,4.999919,0,stoparea:GVB:08250,,1,,
GVB:08251,08251,"Amsterdam, Lumierestraat",52.352978,4.999419,0,stoparea:GVB:08250,,1,,
GVB:08252,08252,"Amsterdam, IJburg",52.350954,5.004324,0,stoparea:GVB:08252,,1,,
GVB:08254,08254,"Amsterdam, Hoogte Kadijk",52.36663,4.924214,0,stoparea:GVB:08254,,0,,
GVB:08255,08255,"Amsterdam, Hoogte Kadijk",52.366875,4.924828,0,stoparea:GVB:08254,,0,,
GVB:08256,08256,"Amsterdam, 1e Coehoornstraat",52.36832,4.926516,0,stoparea:GVB:08256,,0,,
GVB:08257,08257,"Amsterdam, 1e Coehoornstraat",52.368085,4.926181,0,stoparea:GVB:08256,,1,,
GVB:08258,08258,"Amsterdam, 1e Leeghwaterstraat",52.370093,4.929434,0,stoparea:GVB:08258,,0,,
GVB:08259,08259,"Amsterdam, 1e Leeghwaterstraat",52.370472,4.930047,0,stoparea:GVB:08258,,0,,
GVB:08260,08260,"Amsterdam, Rietlandpark",52.372934,4.934442,0,stoparea:GVB:08238,,0,,
GVB:08261,08261,"Amsterdam, Rietlandpark",52.373007,4.934808,0,stoparea:GVB:08238,,0,,
GVB:08268,08268,"Amsterdam, Steigereiland",52.363509,4.979933,0,stoparea:GVB:08268,,1,,
GVB:08269,08269,"Amsterdam, Steigereiland",52.362544,4.981454,0,stoparea:GVB:08268,,1,,
GVB:08270,08270,"Amsterdam, Diemerparklaan",52.355668,4.994727,0,stoparea:GVB:08270,,1,,
GVB:08271,08271,"Amsterdam, Diemerparklaan",52.354809,4.995733,0,stoparea:GVB:08270,,1,,
GVB:08281,08281,"Amsterdam, Vennepluimstraat",52.35714,4.991397,0,stoparea:GVB:08246,,1,,
GVB:08282,08282,"Amsterdam, Vennepluimstraat",52.358008,4.990332,0,stoparea:GVB:08246,,1,,
GVB:08285,08285,"Amsterdam, Lumierestraat",52.352433,5.000187,0,stoparea:GVB:08250,,1,,
GVB:08286,08286,"Amsterdam, Lumierestraat",52.353319,4.999151,0,stoparea:GVB:08250,,1,,
GVB:08288,08288,"Amsterdam, R.J.H. Fortuynplein",52.372261,4.94671,0,stoparea:GVB:08288,,0,,
GVB:08290,08290,"Amsterdam, Molukkenstraat",52.361721,4.940164,0,stoparea:GVB:08129,,0,,
GVB:08291,08291,"Amsterdam, Molukkenstraat",52.361805,4.941,0,stoparea:GVB:08129,,0,,
GVB:08292,08292,"Amsterdam, Zeeburgerdijk",52.365592,4.939523,0,stoparea:GVB:08292,,0,,
GVB:08293,08293,"Amsterdam, Zeeburgerdijk",52.365394,4.939466,0,stoparea:GVB:08292,,0,,
GVB:08299,08299,"Amsterdam, P.Oosterhuisstraat",52.351972,5.00794,0,stoparea:GVB:08299,,1,,
GVB:08300,08300,"Amsterdam, P.Oosterhuisstraat",52.351933,5.006928,0,stoparea:GVB:08299,,1,,
GVB:09001,09001,"Amsterdam, Dintelstraat",52.341916,4.893641,0,stoparea:GVB:09001,,0,,
GVB:09003,09003,"Amsterdam, Dintelstraat",52.341922,4.892892,0,stoparea:GVB:09001,,0,,
GVB:09004,09004,"Amsterdam, Europaplein",52.339924,4.892166,0,stoparea:GVB:09004,,0,,
GVB:09005,09005,"Amsterdam, Europaplein",52.340436,4.892278,0,stoparea:GVB:09004,,1,,
GVB:09008,09008,"Amsterdam, Maxwellstraat",52.347134,4.928409,0,stoparea:GVB:00041,,0,,
GVB:09020,09020,"Amsterdam, Wibautstraat",52.357259,4.90928,0,stoparea:GVB:09020,,0,,
GVB:09023,09023,"Amsterdam, Camperstraat",52.358401,4.913833,0,stoparea:GVB:09023,,0,,
GVB:09024,09024,"Amsterdam, Camperstraat",52.358328,4.913393,0,stoparea:GVB:09023,,0,,
GVB:09027,09027,"Amsterdam, Wibautstraat",52.357379,4.909866,0,stoparea:GVB:09020,,1,,
GVB:09030,09030,"Amsterdam, Prins Bernhardplein",52.348693,4.918104,0,stoparea:GVB:09030,,0,,
GVB:09031,09031,"Amsterdam, Prins Bernhardplein",52.349196,4.917791,0,stoparea:GVB:09030,,0,,
GVB:09032,09032,"Amsterdam, Amstelstation",52.346945,4.919165,0,stoparea:GVB:09514,,0,,
GVB:09033,09033,"Amsterdam, Amstelstation",52.34717,4.919177,0,stoparea:GVB:09514,,0,D,
GVB:09034,09034,"Amsterdam, Amstelstation",52.347081,4.919501,0,stoparea:GVB:09514,,0,C,
GVB:09042,09042,"Amsterdam, Amstelstation",52.346156,4.91954,0,stoparea:GVB:09514,,0,F,
GVB:09043,09043,"Amsterdam, Amstelstation",52.346191,4.91951,0,stoparea:GVB:09514,,0,F,
GVB:09048,09048,"Amsterdam, Victorieplein",52.346592,4.905109,0,stoparea:GVB:09048,,0,,
GVB:09049,09049,"Amsterdam, Victorieplein",52.34637,4.905699,0,stoparea:GVB:09048,,0,,
GVB:09050,09050,"Amsterdam, Victorieplein",52.347005,4.904987,0,stoparea:GVB:09048,,0,,
GVB:09051,09051,"Amsterdam, Victorieplein",52.346454,4.906534,0,stoparea:GVB:09048,,0,,
GVB:09060,09060,"Amsterdam, Waalstraat",52.344625,4.901036,0,stoparea:GVB:09060,,0,,
GVB:09061,09061,"Amsterdam, Waalstraat",52.344426,4.900598,0,stoparea:GVB:09060,,0,,
GVB:09063,09063,"Amsterdam, Waalstraat",52.344653,4.901315,0,stoparea:GVB:09060,,0,,
GVB:09064,09064,"Amsterdam, Pres. Kennedylaan",52.340871,4.901738,0,stoparea:GVB:09064,,0,,
GVB:09065,09065,"Amsterdam, Pres. Kennedylaan",52.340953,4.901898,0,stoparea:GVB:09064,,0,,
GVB:09068,09068,"Amsterdam, Maasstraat",52.342898,4.896359,0,stoparea:GVB:09068,,0,,
GVB:09069,09069,"Amsterdam, Maasstraat",52.343107,4.896841,0,stoparea:GVB:09068,,0,,
GVB:09070,09070,"Amsterdam, Scheldestraat",52.347022,4.889519,0,stoparea:GVB:09070,,0,,
GVB:09071,09071,"Amsterdam, Scheldestraat",52.347418,4.889617,0,stoparea:GVB:09070,,0,,
GVB:09072,09072,"Amsterdam, Scheldeplein",52.343845,4.890567,0,stoparea:GVB:09072,,0,,
GVB:09073,09073,"Amsterdam, Scheldeplein",52.344449,4.891132,0,stoparea:GVB:09072,,0,,
GVB:09074,09074,"Amsterdam, Scheldestraat",52.347478,4.891157,0,stoparea:GVB:09074,,0,,
GVB:09075,09075,"Amsterdam, Scheldestraat",52.347264,4.891615,0,stoparea:GVB:09074,,0,,
GVB:09078,09078,"Amsterdam, Maasstraat",52.34681,4.89476,0,stoparea:GVB:09078,,0,,
GVB:09079,09079,"Amsterdam, Maasstraat",52.347065,4.895447,0,stoparea:GVB:09078,,0,,
GVB:09082,09082,"Amsterdam, Waalstraat",52.346561,4.899738,0,stoparea:GVB:09082,,0,,
GVB:09083,09083,"Amsterdam, Waalstraat",52.346806,4.900323,0,stoparea:GVB:09082,,0,,
GVB:09086,09086,"Amsterdam, Amstelkade",52.348782,4.904322,0,stoparea:GVB:09086,,0,,
GVB:09088,09088,"Amsterdam, Amstelkade",52.349347,4.904067,0,stoparea:GVB:09086,,0,,
GVB:09090,09090,"Amsterdam, Lutmastraat",52.351483,4.90331,0,stoparea:GVB:09090,,0,,
GVB:09091,09091,"Amsterdam, Lutmastraat",52.351842,4.903129,0,stoparea:GVB:09090,,0,,
GVB:09094,09094,"Amsterdam, Ceintuurbaan",52.354603,4.901426,0,stoparea:GVB:09094,,0,,
GVB:09095,09095,"Amsterdam, Ceintuurbaan",52.35506,4.901054,0,stoparea:GVB:09094,,0,,
GVB:09096,09096,"Amsterdam, Van Woustraat",52.354954,4.901628,0,stoparea:GVB:09094,,1,,
GVB:09097,09097,"Amsterdam, Van Woustraat",52.354682,4.900838,0,stoparea:GVB:09094,,0,,
GVB:09100,09100,"Amsterdam, Stadhouderskade",52.358477,4.899182,0,stoparea:GVB:09100,,0,,
GVB:09101,09101,"Amsterdam, Stadhouderskade",52.358018,4.899231,0,stoparea:GVB:09100,,0,,
GVB:09104,09104,"Amsterdam, Albert Cuypstraat",52.354823,4.889402,0,stoparea:GVB:09104,,0,,
GVB:09107,09107,"Amsterdam, Albert Cuypstraat",52.355375,4.890409,0,stoparea:GVB:09104,,0,,
GVB:09108,09108,"Amsterdam, 2e v.d.Helststraat",52.353189,4.894235,0,stoparea:GVB:09108,,0,,
GVB:09109,09109,"Amsterdam, 2e v.d.Helststraat",52.353318,4.894879,0,stoparea:GVB:09108,,0,,
GVB:09111,09111,"Amsterdam, Ferd. Bolstraat",52.352725,4.890732,0,stoparea:GVB:09110,,0,,
GVB:09114,09114,"Amsterdam, Ferd. Bolstraat",52.352761,4.890717,0,stoparea:GVB:09110,,,,
GVB:09119,09119,"Amsterdam, Cornelis Troostplein",52.350005,4.891496,0,stoparea:GVB:09119,,0,,
GVB:09120,09120,"Amsterdam, Cornelis Troostplein",52.350464,4.891608,0,stoparea:GVB:09119,,0,,
GVB:09127,09127,"Amsterdam, Stadhouderskade",52.357849,4.890851,0,stoparea:GVB:09127,,0,,
GVB:09128,09128,"Amsterdam, Stadhouderskade",52.357408,4.890738,0,stoparea:GVB:09127,,0,,
GVB:09139,09139,"Amsterdam, Amsteldijk",52.347111,4.911238,0,stoparea:GVB:09139,,0,,
GVB:09140,09140,"Amsterdam, Amsteldijk",52.347045,4.910549,0,stoparea:GVB:09139,,0,,
GVB:09160,09160,"Amsterdam, Maasstraat",52.340723,4.896398,0,stoparea:GVB:09160,,0,,
GVB:09161,09161,"Amsterdam, Maasstraat",52.340471,4.89844,0,stoparea:GVB:09160,,0,,
GVB:09175,09175,"Amsterdam, James Wattstraat",52.351534,4.922757,0,stoparea:GVB:09175,,0,,
GVB:09176,09176,"Amsterdam, James Wattstraat",52.351159,4.923289,0,stoparea:GVB:09175,,0,,
GVB:09177,09177,"Amsterdam, Krugerplein",52.353072,4.920759,0,stoparea:GVB:09177,,0,,
GVB:09178,09178,"Amsterdam, Krugerplein",52.352973,4.920804,0,stoparea:GVB:09177,,0,,
GVB:09179,09179,"Amsterdam, Maxwellstraat",52.348239,4.928265,0,stoparea:GVB:00041,,0,,
GVB:09180,09180,"Amsterdam, Wibautstraat",52.355005,4.91177,0,stoparea:GVB:09180,,1,,
GVB:09181,09181,"Amsterdam, Wibautstraat",52.355676,4.911117,0,stoparea:GVB:09180,,1,,
GVB:09184,09184,"Amsterdam, Ferd. Bolstraat",52.357959,4.891481,0,stoparea:GVB:09127,,0,,
GVB:09185,09185,"Amsterdam, Van Woustraat",52.35785,4.899746,0,stoparea:GVB:09100,,0,,
GVB:09186,09186,"Amsterdam, Amstelstation",52.346794,4.919563,0,stoparea:GVB:09514,,0,,
GVB:09187,09187,"Amsterdam, Van Woustraat",52.357985,4.899892,0,stoparea:GVB:09100,,0,,
GVB:09188,09188,"Amsterdam, Ferd. Bolstraat",52.35799,4.89239,0,stoparea:GVB:09188,,0,,
GVB:09501,09501,"Amsterdam, Centraal Station",52.377492,4.900779,0,stoparea:GVB:09500,,1,,
GVB:09502,09502,"Amsterdam, Nieuwmarkt",52.371931,4.901295,0,stoparea:GVB:09502,,1,,
GVB:09503,09503,"Amsterdam, Nieuwmarkt",52.37194,4.901236,0,stoparea:GVB:09502,,1,,
GVB:09508,09508,"Amsterdam, Waterlooplein",52.367004,4.903052,0,stoparea:GVB:09508,,1,,
GVB:09509,09509,"Amsterdam, Waterlooplein",52.366977,4.902979,0,stoparea:GVB:09508,,1,,
GVB:09510,09510,"Amsterdam, Weesperplein",52.361227,4.908033,0,stoparea:GVB:09510,,1,,
GVB:09511,09511,"Amsterdam, Weesperplein",52.361199,4.907872,0,stoparea:GVB:09510,,1,,
GVB:09512,09512,"Amsterdam, Wibautstraat",52.354341,4.912232,0,stoparea:GVB:09512,,1,,
GVB:09513,09513,"Amsterdam, Wibautstraat",52.354287,4.912027,0,stoparea:GVB:09512,,1,,
GVB:09514,09514,"Amsterdam, Amstelstation",52.346489,4.91757,0,stoparea:GVB:09514,,1,,
GVB:09515,09515,"Amsterdam, Amstelstation",52.346471,4.917512,0,stoparea:GVB:09514,,1,,
GVB:09516,09516,"Amsterdam, Van der Madeweg",52.329857,4.930172,0,stoparea:GVB:09516,,1,,
GVB:09517,09517,"Amsterdam, Van der Madeweg",52.329454,4.930484,0,stoparea:GVB:09516,,1,,
GVB:09518,09518,"Amsterdam, Spaklerweg",52.340184,4.920894,0,stoparea:GVB:09518,,1,,
GVB:09519,09519,"Amsterdam, Spaklerweg",52.339897,4.921029,0,stoparea:GVB:09518,,1,,
GVB:09520,09520,"Amsterdam, Strandvliet",52.318665,4.94136,0,stoparea:GVB:09520,,1,,
GVB:09521,09521,"Amsterdam, Strandvliet",52.318253,4.941526,0,stoparea:GVB:09520,,1,,
GVB:09522,09522,"Amsterdam, Station Bijlmer ArenA",52.312611,4.946935,0,stoparea:GVB:09522,,1,4,
GVB:09523,09523,"Amsterdam, Station Bijlmer ArenA",52.311928,4.947132,0,stoparea:GVB:09522,,1,5,
GVB:09524,09524,"Amsterdam, Bullewijk",52.306931,4.952079,0,stoparea:GVB:09524,,1,,
GVB:09525,09525,"Amsterdam, Bullewijk",52.30642,4.952333,0,stoparea:GVB:09524,,1,,
GVB:09526,09526,"Amsterdam, Station Holendrecht",52.298403,4.959873,0,stoparea:GVB:09526,,1,,
GVB:09527,09527,"Amsterdam, Station Holendrecht",52.297802,4.960216,0,stoparea:GVB:09526,,1,,
GVB:09528,09528,"Amsterdam, Reigersbos",52.295585,4.973636,0,stoparea:GVB:09528,,1,,
GVB:09529,09529,"Amsterdam, Reigersbos",52.295661,4.974735,0,stoparea:GVB:09528,,1,,
GVB:09530,09530,"Amsterdam, Gein",52.296391,4.988478,0,stoparea:GVB:09530,,1,,
GVB:09531,09531,"Amsterdam, Gein",52.296269,4.98952,0,stoparea:GVB:09530,,1,,
GVB:09540,09540,"Amsterdam, Venserpolder",52.326727,4.946047,0,stoparea:GVB:09540,,1,,
GVB:09541,09541,"Amsterdam, Venserpolder",52.326792,4.946647,0,stoparea:GVB:09540,,1,,
GVB:09542,09542,"Diemen, Station Diemen-Zuid",52.330215,4.956105,0,stoparea:GVB:09542,,1,,
GVB:09543,09543,"Diemen, Station Diemen-Zuid",52.330426,4.95713,0,stoparea:GVB:09542,,1,,
GVB:09544,09544,"Amsterdam, Verrijn Stuartweg",52.328815,4.966549,0,stoparea:GVB:09544,,1,,
GVB:09545,09545,"Amsterdam, Verrijn Stuartweg",52.328439,4.966934,0,stoparea:GVB:09544,,1,,
GVB:09546,09546,"Amsterdam, Station Ganzenhoef",52.323984,4.972858,0,stoparea:GVB:09546,,1,,
GVB:09547,09547,"Amsterdam, Station Ganzenhoef",52.323311,4.973231,0,stoparea:GVB:09546,,1,,
GVB:09548,09548,"Amsterdam, Kraaienneststation",52.316825,4.979407,0,stoparea:GVB:09548,,1,,
GVB:09549,09549,"Amsterdam, Kraaienneststation",52.316323,4.979632,0,stoparea:GVB:09548,,1,,
GVB:09550,09550,"Amsterdam, Gaasperplas",52.311225,4.984488,0,stoparea:GVB:09550,,1,,
GVB:09551,09551,"Duivendrecht, Station Duivendrecht",52.32325,4.936782,0,stoparea:GVB:09551,,1,,
GVB:09552,09552,"Duivendrecht, Station Duivendrecht",52.323895,4.936262,0,stoparea:GVB:09551,,1,,
GVB:09555,09555,"Amsterdam, Gaasperplas",52.310804,4.984683,0,stoparea:GVB:09550,,1,,
GVB:09562,09562,"Amsterdam, Station Zuid",52.339078,4.875096,0,stoparea:GVB:07408,,1,,
GVB:09563,09563,"Amsterdam, Overamstel",52.331797,4.918151,0,stoparea:GVB:07400,,1,,
GVB:09564,09564,"Amsterdam, Van der Madeweg",52.329903,4.930333,0,stoparea:GVB:09516,,1,,
GVB:09565,09565,"Amsterdam, Van der Madeweg",52.3294,4.930323,0,stoparea:GVB:09516,,1,,
GVB:09566,09566,"Amsterdam, Spaklerweg",52.33986,4.920854,0,stoparea:GVB:09518,,1,,
GVB:09567,09567,"Amsterdam, Spaklerweg",52.340239,4.92107,0,stoparea:GVB:09518,,1,,
GVB:09901,09901,"Amsterdam, Distelweg",52.395773,4.896479,0,stoparea:GVB:09901,,0,,
GVB:09902,09902,"Amsterdam, NDSM",52.400939,4.891735,0,stoparea:GVB:09902,,0,,
GVB:09903,09903,"Amsterdam, Centraal Station",52.380865,4.8992,0,stoparea:GVB:09903,,0,,
GVB:09904,09904,"Amsterdam, Westerdoksdijk",52.388136,4.892597,0,stoparea:GVB:09904,,0,,
GVB:09905,09905,"Amsterdam, Centraal Station",52.380705,4.899554,0,stoparea:GVB:09903,,0,,
GVB:09906,09906,"Amsterdam, Buiksloterweg",52.382265,4.903179,0,stoparea:GVB:01371,,0,,
GVB:09910,09910,"Amsterdam, Centraal Station",52.379148,4.903478,0,stoparea:GVB:09903,,0,,
GVB:09911,09911,"Amsterdam, IJplein",52.381774,4.908281,0,stoparea:GVB:09911,,0,,
GVB:09915,09915,"Amsterdam, Zamenhofstraat",52.384993,4.931366,0,stoparea:GVB:09915,,0,,
GVB:09918,09918,"Velzen, Velsen Noord",52.465956,4.632572,0,stoparea:GVB:09918,,0,,
GVB:09919,09919,"Velzen, Velsen Zuid",52.462601,4.632188,0,stoparea:GVB:09919,,0,,
GVB:09920,09920,"Assendelft, Assendelft",52.434711,4.725189,0,stoparea:GVB:09920,,0,,
GVB:09921,09921,"Spaarndam, Spaarndam",52.431453,4.724561,0,stoparea:GVB:09921,,0,,
GVB:09922,09922,"Amsterdam, Zaandam",52.421329,4.826383,0,stoparea:GVB:09922,,0,,
GVB:09923,09923,"Amsterdam, Hempontplein",52.418051,4.826983,0,stoparea:GVB:09923,,0,,
GVB:09925,09925,"Amsterdam, Azartplein",52.377754,4.937521,0,stoparea:GVB:09925,,0,,
stoparea:GVB:00001,,"Amsterdam, Muiderpoortstation",52.36119375,4.93322925,1,,,0,,
stoparea:GVB:00008,,"Amsterdam, Dapperstraat",52.3610145,4.929344,1,,,0,,
stoparea:GVB:00014,,"Amsterdam, Wijttenbachstraat",52.360026,4.9252955,1,,,0,,
stoparea:GVB:00018,,"Amsterdam, Diemerknoop",52.335401,5.00291,1,,,0,,
stoparea:GVB:00020,,"Amsterdam, Beukenweg",52.358679,4.9169785,1,,,0,,
stoparea:GVB:00023,,"Amsterdam, Beukenplein",52.357133,4.9180815,1,,,0,,
stoparea:GVB:00029,,"Amsterdam, Pretoriusstraat",52.357231,4.927064,1,,,0,,
stoparea:GVB:00039,,"Amsterdam, Hogeweg",52.3533955,4.931096,1,,,0,,
stoparea:GVB:00041,,"Amsterdam, Maxwellstraat",52.3478013333333,4.92895466666667,1,,,0,,
stoparea:GVB:00044,,"Amsterdam, Fizeaustraat",52.3459325,4.9244805,1,,,0,,
stoparea:GVB:00048,,"Amsterdam, Lorentzlaan",52.346113,4.931641,1,,,0,,
stoparea:GVB:00051,,"Amsterdam, Maxwellstraat",52.3456465,4.9366495,1,,,0,,
stoparea:GVB:00053,,"Amsterdam, Kruislaan",52.3475125,4.939764,1,,,0,,
stoparea:GVB:00055,,"Amsterdam, Linnaeusparkweg",52.348948,4.942149,1,,,0,,
stoparea:GVB:00059,,"Amsterdam, Radioweg",52.3535,4.9396235,1,,,0,,
stoparea:GVB:00061,,"Amsterdam, Archimedesweg",52.3556525,4.939763,1,,,0,,
stoparea:GVB:00065,,"Amsterdam, Hugo de Vrieslaan",52.35059825,4.93468075,1,,,0,,
stoparea:GVB:00074,,"Amsterdam, Brinkstraat",52.343046,4.9476965,1,,,0,,
stoparea:GVB:00079,,"Amsterdam, Zaaiersweg",52.339427,4.938943,1,,,0,,
stoparea:GVB:00113,,"Amsterdam, Dennenrode",52.3220025,4.9516895,1,,,0,,
stoparea:GVB:00118,,"Amsterdam, Echtenstein",52.3247275,4.95962,1,,,0,,
stoparea:GVB:00124,,"Amsterdam, Geldershoofd",52.3250645,4.970897,1,,,0,,
stoparea:GVB:00126,,"Amsterdam, Grubbehoeve",52.323688,4.9769605,1,,,0,,
stoparea:GVB:00128,,"Amsterdam, Geerdinkhof",52.3232555,4.9805145,1,,,0,,
stoparea:GVB:00134,,"Amsterdam, Koornhorst",52.3191915,4.9839835,1,,,0,,
stoparea:GVB:00144,,"Amsterdam, Kikkenstein",52.3165095,4.9725395,1,,,0,,
stoparea:GVB:00146,,"Amsterdam, Gooioord",52.320214,4.969212,1,,,0,,
stoparea:GVB:00150,,"Amsterdam, Tulastraat",52.319896,4.9655995,1,,,0,,
stoparea:GVB:00152,,"Amsterdam, Florijn",52.317684,4.9591525,1,,,0,,
stoparea:GVB:00156,,"Amsterdam, Dolingadreef",52.319249,4.948468,1,,,0,,
stoparea:GVB:00158,,"Amsterdam, Dolingadreef",52.318955,4.949013,1,,,0,,
stoparea:GVB:00164,,"Amsterdam, Hofgeest",52.3129395,4.958113,1,,,0,,
stoparea:GVB:00167,,"Amsterdam, Hogevecht",52.3094625,4.959767,1,,,0,,
stoparea:GVB:00169,,"Amsterdam, Huigenbos",52.3067785,4.9607975,1,,,0,,
stoparea:GVB:00171,,"Amsterdam, Maasdrielhof",52.302004,4.9651605,1,,,0,,
stoparea:GVB:00172,,"Amsterdam, Holendrechtplein",52.2993155,4.963559,1,,,0,,
stoparea:GVB:00177,,"Amsterdam, Nelson Mandelapark",52.310979,4.9641955,1,,,0,,
stoparea:GVB:00179,,"Amsterdam, Kelbergen",52.3135265,4.9716135,1,,,0,,
stoparea:GVB:00184,,"Amsterdam, Meernhof",52.299469,4.967472,1,,,0,,
stoparea:GVB:00186,,"Amsterdam, Geinbrug",52.3044525,5.0129495,1,,,0,,
stoparea:GVB:00197,,"Amsterdam, Annie Romeinplein",52.3215815,4.970798,1,,,0,,
stoparea:GVB:00201,,"Amsterdam, Reigersbroeck",52.3109415,5.0003865,1,,,0,,
stoparea:GVB:00206,,"Amsterdam, Rhenenhof",52.2982295,4.9704305,1,,,0,,
stoparea:GVB:00209,,"Amsterdam, Hakfort",52.308018,4.9555875,1,,,0,,
stoparea:GVB:00220,,"Amsterdam, Gaasp",52.3145915,4.9925455,1,,,0,,
stoparea:GVB:00237,,"Amsterdam, Flierbosdreef",52.316034,4.954131,1,,,0,,
stoparea:GVB:00239,,"Amsterdam, Anton de Komplein",52.316527,4.955974,1,,,0,,
stoparea:GVB:00252,,"Diemen, Tarwekamp",52.33301,4.9548015,1,,,0,,
stoparea:GVB:00254,,"Diemen, Biesbosch",52.330499,4.9452095,1,,,0,,
stoparea:GVB:00256,,"Duivendrecht, Kruidenommegang",52.327969,4.939338,1,,,0,,
stoparea:GVB:00258,,"Duivendrecht, Burg. van Damstraat",52.334238,4.9416515,1,,,0,,
stoparea:GVB:00260,,"Duivendrecht, Lunaweg",52.332229,4.93694,1,,,0,,
stoparea:GVB:00266,,"Duivendrecht, Korenbloemstraat",52.329859,4.9400155,1,,,0,,
stoparea:GVB:00268,,"Duivendrecht, Astronautenweg",52.329892,4.934543,1,,,0,,
stoparea:GVB:00295,,"Amsterdam, Dalsteindreef",52.324817,4.9423765,1,,,0,,
stoparea:GVB:00305,,"Amsterdam, Leusdenhof",52.3098565,4.97843,1,,,0,,
stoparea:GVB:00307,,"Amsterdam, Leerdamhof",52.3063965,4.974642,1,,,0,,
stoparea:GVB:00332,,"Amsterdam, Schoonhovendreef",52.2939215,4.9745605,1,,,0,,
stoparea:GVB:00334,,"Amsterdam, Scherpenzeelstraat",52.2928205,4.977319,1,,,0,,
stoparea:GVB:00336,,"Amsterdam, Schaarsbergenstraat",52.292705,4.9814385,1,,,0,,
stoparea:GVB:00338,,"Amsterdam, Staverdenplein",52.2928595,4.98593,1,,,0,,
stoparea:GVB:00340,,"Amsterdam, Gein",52.294181,4.98882,1,,,0,,
stoparea:GVB:00342,,"Amsterdam, Gein",52.298631,4.989147,1,,,0,,
stoparea:GVB:00344,,"Amsterdam, W. Gertenbachstraat",52.298883,4.989291,1,,,0,,
stoparea:GVB:00347,,"Amsterdam, Haardstee",52.311103,4.951202,1,,,0,,
stoparea:GVB:00349,,"Amsterdam, Woudrichemstraat",52.294335,4.989054,1,,,0,,
stoparea:GVB:00351,,"Amsterdam, Dostojevskisingel",52.3229475,4.9449105,1,,,0,,
stoparea:GVB:00364,,"Diemen, Boven Rijkersloot",52.334818,4.9552095,1,,,0,,
stoparea:GVB:00370,,"Duivendrecht, Plataanstraat",52.332415,4.941017,1,,,0,,
stoparea:GVB:00419,,"Amsterdam, Wamelstraat",52.3015315,4.9857345,1,,,0,,
stoparea:GVB:00421,,"Amsterdam, Veenendaalplein",52.3015145,4.9806325,1,,,0,,
stoparea:GVB:00434,,"Amsterdam, Bijlmerplein",52.314573,4.950318,1,,,0,,
stoparea:GVB:00436,,"Duivendrecht, Industrieweg",52.3355335,4.9457465,1,,,0,,
stoparea:GVB:00441,,"Amsterdam, Muiderpoortstation",52.360883,4.932539,1,,,0,,
stoparea:GVB:00442,,"Diemen, Beukenhorst",52.337483,4.960055,1,,,0,,
stoparea:GVB:00445,,"Diemen, Schoolstraat",52.338754,4.9586415,1,,,0,,
stoparea:GVB:00447,,"Diemen, Nic. Lublinkstraat",52.3374895,4.9657625,1,,,0,,
stoparea:GVB:00449,,"Diemen, Diemen (Sniep)",52.336583,4.969821,1,,,0,,
stoparea:GVB:00460,,"Diemen, Hogeschool InHolland",52.326852,4.960436,1,,,0,,
stoparea:GVB:00491,,"Amsterdam, Science Park Aer",52.3549945,4.952437,1,,,0,,
stoparea:GVB:00494,,"Amsterdam, Science Park Aqua",52.356048,4.9541515,1,,,0,,
stoparea:GVB:00504,,"Diemen, Arent Krijtsstraat",52.339615,4.9545245,1,,,0,,
stoparea:GVB:00506,,"Amsterdam, Science Park Terra",52.354346,4.958307,1,,,0,,
stoparea:GVB:00507,,"Amsterdam, Science Park Terra",52.354138,4.957722,1,,,0,,
stoparea:GVB:00514,,"Amsterdam, Eekholt",52.326825,4.965409,1,,,0,,
stoparea:GVB:00517,,"Amsterdam, Foppingadreef",52.312684,4.949676,1,,,0,,
stoparea:GVB:00525,,"Diemen, Provincialeweg",52.327824,4.9723015,1,,,0,,
stoparea:GVB:00527,,"Amsterdam, Eekholt",52.327199,4.967063,1,,,0,,
stoparea:GVB:00529,,"Amsterdam, Station Science Park",52.3523495,4.9479495,1,,,0,,
stoparea:GVB:00548,,"Amsterdam, Station Spaklerweg",52.3377975,4.9218655,1,,,0,,
stoparea:GVB:00550,,"Duivendrecht, Joan Muyskenweg",52.32959,4.9157685,1,,,0,,
stoparea:GVB:00554,,"Amsterdam, Science Park",52.3546645,4.9506055,1,,,0,,
stoparea:GVB:00556,,"Amsterdam, C. Mac Gillavrylaan",52.357675,4.9444545,1,,,0,,
stoparea:GVB:00570,,"Amsterdam, Stationsweg",52.3242085,4.931257,1,,,0,,
stoparea:GVB:00573,,"Amsterdam, H.J.E. Wenckebachweg",52.3412525,4.919467,1,,,0,,
stoparea:GVB:00578,,"Amsterdam, De Flinesstraat",52.327453,4.92672,1,,,0,,
stoparea:GVB:00579,,"Amsterdam, De Flinesstraat",52.327641,4.926468,1,,,0,,
stoparea:GVB:00601,,"Weesp, Van Houtenlaan",52.303816,5.037117,1,,,0,,
stoparea:GVB:00602,,"Weesp, Van Houtenlaan",52.303762,5.036898,1,,,0,,
stoparea:GVB:00603,,"Weesp, V. Houten Ind.park",52.306482,5.035806,1,,,0,,
stoparea:GVB:00604,,"Weesp, V. Houten Ind.park",52.306427,5.035645,1,,,0,,
stoparea:GVB:00651,,"Weesp, Casparuslaan",52.309114,5.035316,1,,,0,,
stoparea:GVB:00652,,"Weesp, Casparuslaan",52.309239,5.035168,1,,,0,,
stoparea:GVB:00653,,"Weesp, Winkelcentrum",52.310257,5.032931,1,,,0,,
stoparea:GVB:00655,,"Weesp, Sinnigvelderstraat",52.310271,5.028723,1,,,0,,
stoparea:GVB:00665,,"Weesp, Station Weesp",52.311448,5.043832,1,,,0,,
stoparea:GVB:00675,,"Weesp, J.H.Leopoldhof",52.31219,5.03906,1,,,0,,
stoparea:GVB:00678,,"Weesp, J.H.Leopoldhof",52.312306,5.038927,1,,,0,,
stoparea:GVB:00901,,"Diemen, Stammerkamp",52.3332725,4.9831805,1,,,0,,
stoparea:GVB:00966,,"Diemen, Tureluurweg",52.3507715,4.979176,1,,,0,,
stoparea:GVB:00967,,"Diemen, Landlust",52.347635,4.971595,1,,,0,,
stoparea:GVB:00970,,"Diemen, Diemen Noord",52.346974,4.985911,1,,,0,,
stoparea:GVB:00971,,"Diemen, Rietzangerweg",52.350843,4.973826,1,,,0,,
stoparea:GVB:00972,,"Diemen, Oude Waelweg",52.351273,4.971062,1,,,0,,
stoparea:GVB:00973,,"Diemen, Vogelweg",52.349152,4.973563,1,,,0,,
stoparea:GVB:00974,,"Diemen, Buytenweg",52.349141,4.970466,1,,,0,,
stoparea:GVB:00975,,"Diemen, Station Diemen",52.345217,4.967634,1,,,0,,
stoparea:GVB:00976,,"Diemen, Klipperweg",52.348887,4.9827235,1,,,0,,
stoparea:GVB:00979,,"Diemen, Meerkoet",52.352173,4.976352,1,,,0,,
stoparea:GVB:00980,,"Diemen, Zeezigt",52.35262,4.975805,1,,,0,,
stoparea:GVB:00985,,"Diemen, Winkelcentrum",52.3415085,4.963501,1,,,0,,
stoparea:GVB:00986,,"Diemen, Prins Bernhardlaan",52.338051,4.968134,1,,,0,,
stoparea:GVB:00989,,"Diemen, Martin L.Kinglaan",52.3431285,4.965452,1,,,0,,
stoparea:GVB:00992,,"Diemen, Pr. Beatrixlaan",52.339883,4.967706,1,,,0,,
stoparea:GVB:00998,,"Diemen, Vinkenbrug",52.333706,4.978548,1,,,0,,
stoparea:GVB:01001,,"Amsterdam, Hilversumstraat",52.3899935,4.95891,1,,,0,,
stoparea:GVB:01004,,"Amsterdam, Volendammerweg",52.391688,4.957564,1,,,0,,
stoparea:GVB:01005,,"Amsterdam, Volendammerweg",52.3928085,4.956885,1,,,0,,
stoparea:GVB:01006,,"Amsterdam, Purmerweg",52.3900095,4.94859,1,,,0,,
stoparea:GVB:01008,,"Amsterdam, Wognumerplantsoen",52.3875055,4.949489,1,,,0,,
stoparea:GVB:01010,,"Amsterdam, Schellingw.dijk 83",52.3863895,4.953877,1,,,0,,
stoparea:GVB:01012,,"Amsterdam, Schellingw.dijk 175",52.385683,4.9586505,1,,,0,,
stoparea:GVB:01014,,"Amsterdam, IJdijk",52.3839865,4.9629265,1,,,0,,
stoparea:GVB:01016,,"Amsterdam, Liergouw",52.3818275,4.9662075,1,,,0,,
stoparea:GVB:01018,,"Amsterdam, Volkstuin",52.379596,4.974248,1,,,0,,
stoparea:GVB:01020,,"Amsterdam, Durgerd.dijk 4",52.376217,4.9783255,1,,,0,,
stoparea:GVB:01022,,"Amsterdam, Durgerd.dijk 36",52.375853,4.9862,1,,,0,,
stoparea:GVB:01024,,"Durgerdam, Durgerd.dijk 82",52.377366,4.988617,1,,,0,,
stoparea:GVB:01026,,"Durgerdam, Kabelhuisje",52.378028,4.991585,1,,,0,,
stoparea:GVB:01028,,"Durgerdam, Durgerd.dijk 175",52.3797785,4.9976055,1,,,0,,
stoparea:GVB:01030,,"Durgerdam, Uitdammerdijk",52.3810685,5.0019635,1,,,0,,
stoparea:GVB:01032,,"Durgerdam, Durgerd. gouw 37",52.3847545,5.0023945,1,,,0,,
stoparea:GVB:01034,,"Ransdorp, Durgerd.gouw 20",52.3877125,5.0026915,1,,,0,,
stoparea:GVB:01036,,"Ransdorp, Dorpsweg",52.390801,4.996135,1,,,0,,
stoparea:GVB:01038,,"Ransdorp, Ransdorp (kerk)",52.393217,4.994182,1,,,0,,
stoparea:GVB:01040,,"Ransdorp, Nieuwe Gouw",52.3958545,4.9955985,1,,,0,,
stoparea:GVB:01042,,"Ransdorp, Bloemend.gouw 42",52.3962825,5.005424,1,,,0,,
stoparea:GVB:01044,,"Ransdorp, Kinselmeer",52.3960515,5.010509,1,,,0,,
stoparea:GVB:01046,,"Amsterdam, Bloemend.gouw 69",52.4032695,5.018001,1,,,0,,
stoparea:GVB:01048,,"Amsterdam, Blijkmeer",52.408926,5.024787,1,,,0,,
stoparea:GVB:01050,,"Holysloot, Bloemend.gouw 38",52.413287,5.025648,1,,,0,,
stoparea:GVB:01052,,"Holysloot, Holysloot",52.413205,5.025068,1,,,0,,
stoparea:GVB:01053,,"Amsterdam, Buikslotermeerplein",52.3999528,4.9344566,1,,,0,,
stoparea:GVB:01058,,"Amsterdam, Purmerplein",52.39062,4.9457785,1,,,0,,
stoparea:GVB:01060,,"Amsterdam, Wervershoofstraat",52.392602,4.939963,1,,,0,,
stoparea:GVB:01062,,"Amsterdam, Nieuwe Purmerweg",52.394333,4.9343185,1,,,0,,
stoparea:GVB:01064,,"Amsterdam, Het Breed",52.3981945,4.9321635,1,,,0,,
stoparea:GVB:01066,,"Amsterdam, Olof Palmeplein",52.39675675,4.9400165,1,,,0,,
stoparea:GVB:01067,,"Amsterdam, Ilperveldstraat",52.3949975,4.9449045,1,,,0,,
stoparea:GVB:01069,,"Amsterdam, De Egmondenstraat",52.393848,4.948787,1,,,0,,
stoparea:GVB:01071,,"Amsterdam, Waterlandplein",52.392287,4.9532025,1,,,0,,
stoparea:GVB:01077,,"Amsterdam, Dijkmanshuizenstraat",52.395883,4.954578,1,,,0,,
stoparea:GVB:01079,,"Amsterdam, Beemsterstraat",52.3974873333333,4.95169966666667,1,,,0,,
stoparea:GVB:01080,,"Amsterdam, Markengouw",52.3992115,4.9530395,1,,,0,,
stoparea:GVB:01082,,"Amsterdam, Zunderdorpergouw",52.404243,4.9611675,1,,,0,,
stoparea:GVB:01084,,"Amsterdam, Kerklaan",52.407315,4.9644745,1,,,0,,
stoparea:GVB:01086,,"Amsterdam, 't Nopeind",52.409868,4.9647215,1,,,0,,
stoparea:GVB:01088,,"Amsterdam, Zunderdorp",52.410057,4.962074,1,,,0,,
stoparea:GVB:01089,,"Amsterdam, Buikslotermeerdijk",52.4013655,4.957125,1,,,0,,
stoparea:GVB:01092,,"Amsterdam, Th. Weeversweg",52.398236,4.944439,1,,,0,,
stoparea:GVB:01100,,"Amsterdam, Bakkerswaal",52.4023085,4.9374405,1,,,0,,
stoparea:GVB:01103,,"Amsterdam, Amerbos",52.403206,4.941979,1,,,0,,
stoparea:GVB:01106,,"Amsterdam, Spelderholt",52.401183,4.944211,1,,,0,,
stoparea:GVB:01108,,"Amsterdam, J. Drijverweg",52.3995385,4.944286,1,,,0,,
stoparea:GVB:01110,,"Amsterdam, Rode Kruisstraat",52.3947155,4.9286435,1,,,0,,
stoparea:GVB:01112,,"Amsterdam, Waddenweg",52.392633,4.926954,1,,,0,,
stoparea:GVB:01114,,"Amsterdam, Merelstraat",52.389911,4.9249915,1,,,0,,
stoparea:GVB:01119,,"Amsterdam, Hamerstraat",52.386133,4.921836,1,,,0,,
stoparea:GVB:01122,,"Amsterdam, Havikslaan",52.385174,4.9179465,1,,,0,,
stoparea:GVB:01124,,"Amsterdam, Valkenweg",52.383071,4.913525,1,,,0,,
stoparea:GVB:01126,,"Amsterdam, Spreeuwenpark",52.384858,4.9142115,1,,,0,,
stoparea:GVB:01130,,"Amsterdam, Hagedoornplein",52.388037,4.913546,1,,,0,,
stoparea:GVB:01138,,"Amsterdam, Grasweg",52.388421,4.905036,1,,,0,,
stoparea:GVB:01139,,"Amsterdam, Grasweg",52.388556,4.905079,1,,,0,,
stoparea:GVB:01149,,"Amsterdam, Mosplein",52.393287,4.9138275,1,,,0,,
stoparea:GVB:01156,,"Amsterdam, Sneeuwbalstraat",52.396357,4.9140445,1,,,0,,
stoparea:GVB:01161,,"Amsterdam, Eeuwige Jeugdlaan",52.405855,4.934208,1,,,0,,
stoparea:GVB:01166,,"Amsterdam, Barkpad",52.402652,4.9116115,1,,,0,,
stoparea:GVB:01167,,"Amsterdam, Tjalkstraat",52.405322,4.9106205,1,,,0,,
stoparea:GVB:01171,,"Amsterdam, Voordek",52.410745,4.917102,1,,,0,,
stoparea:GVB:01173,,"Amsterdam, Tussendek",52.4128305,4.919601,1,,,0,,
stoparea:GVB:01175,,"Amsterdam, Staghof",52.4135535,4.9227385,1,,,0,,
stoparea:GVB:01177,,"Amsterdam, Masthof",52.4120915,4.925789,1,,,0,,
stoparea:GVB:01179,,"Amsterdam, Grootzeil",52.4084835,4.9237175,1,,,0,,
stoparea:GVB:01184,,"Amsterdam, Koopvaardersplantsoen",52.406479,4.9156635,1,,,0,,
stoparea:GVB:01189,,"Amsterdam, Pinksterbloemstraat",52.3986685,4.9121245,1,,,0,,
stoparea:GVB:01193,,"Amsterdam, Slijperweg",52.398966,4.907263,1,,,0,,
stoparea:GVB:01197,,"Amsterdam, Draaierweg",52.4002835,4.90274,1,,,0,,
stoparea:GVB:01203,,"Amsterdam, Meteorensingel",52.4102715,4.8913215,1,,,0,,
stoparea:GVB:01205,,"Amsterdam, Maanstraat",52.412186,4.8870895,1,,,0,,
stoparea:GVB:01208,,"Amsterdam, Meteorenweg",52.4147545,4.88135,1,,,0,,
stoparea:GVB:01210,,"Amsterdam, Kometensingel",52.4165755,4.882733,1,,,0,,
stoparea:GVB:01212,,"Amsterdam, Oostzanerdijk",52.420304,4.8811615,1,,,0,,
stoparea:GVB:01214,,"Amsterdam, Bovenkruier",52.4201995,4.8840955,1,,,0,,
stoparea:GVB:01216,,"Amsterdam, Petmolen",52.4175465,4.885875,1,,,0,,
stoparea:GVB:01222,,"Amsterdam, Standerdmolen",52.416254,4.8927245,1,,,0,,
stoparea:GVB:01224,,"Amsterdam, Appelweg",52.415677,4.895509,1,,,0,,
stoparea:GVB:01226,,"Amsterdam, Druivenstraat",52.412534,4.898403,1,,,0,,
stoparea:GVB:01228,,"Amsterdam, Ananasplein",52.4105055,4.895831,1,,,0,,
stoparea:GVB:01275,,"Amsterdam, Banne Buikslootlaan",52.408153,4.917416,1,,,0,,
stoparea:GVB:01277,,"Amsterdam, Statenjachtstraat",52.407905,4.913723,1,,,0,,
stoparea:GVB:01324,,"Amsterdam, Volkstuin",52.386963,4.9684655,1,,,0,,
stoparea:GVB:01326,,"Amsterdam, Bloemend.gouw 51",52.3960545,5.008658,1,,,0,,
stoparea:GVB:01328,,"Amsterdam, Het Breed",52.397724,4.937333,1,,,0,,
stoparea:GVB:01337,,"Amsterdam, Dorpsweg 38",52.392095,4.994706,1,,,0,,
stoparea:GVB:01339,,"Amsterdam, G.J. Scheurleerweg",52.403822,4.92913,1,,,0,,
stoparea:GVB:01346,,"Amsterdam, Nageljongenstraat",52.408197,4.8993615,1,,,0,,
stoparea:GVB:01351,,"Amsterdam, Oosterlengte",52.40597,4.9221935,1,,,0,,
stoparea:GVB:01353,,"Amsterdam, BovenIJ ziekenhuis",52.4055435,4.9200595,1,,,0,,
stoparea:GVB:01358,,"Amsterdam, Durgerd.dijk 143",52.378927,4.994375,1,,,0,,
stoparea:GVB:01359,,"Amsterdam, Molenwijk",52.4181064,4.893586,1,,,0,,
stoparea:GVB:01363,,"Amsterdam, Hildsven",52.3996775,4.9392745,1,,,0,,
stoparea:GVB:01365,,"Amsterdam, Atatürk",52.403234,4.8978515,1,,,0,,
stoparea:GVB:01367,,"Amsterdam, Tuigerstraat",52.4062835,4.899515,1,,,0,,
stoparea:GVB:01369,,"Amsterdam, Pomonastraat",52.408846,4.895467,1,,,0,,
stoparea:GVB:01371,,"Amsterdam, Buiksloterwegveer",52.3823956666667,4.90356466666667,1,,,0,,
stoparea:GVB:01378,,"Amsterdam, Molenaarsweg",52.4214645,4.8868815,1,,,0,,
stoparea:GVB:01380,,"Amsterdam, Zuideinde",52.420097,4.892946,1,,,0,,
stoparea:GVB:01382,,"Amsterdam, Vorticellaweg",52.419862,4.9078545,1,,,0,,
stoparea:GVB:01386,,"Amsterdam, Zuiderzeeweg",52.3824,4.9704985,1,,,0,,
stoparea:GVB:01388,,"Amsterdam, Liergouw",52.383335,4.9706145,1,,,0,,
stoparea:GVB:01403,,"Amsterdam, Distelweg",52.394369,4.902496,1,,,0,,
stoparea:GVB:01406,,"Amsterdam, Klaprozenweg",52.397863,4.906285,1,,,0,,
stoparea:GVB:01409,,"Amsterdam, Kadoelenpad",52.413634,4.911347,1,,,0,,
stoparea:GVB:01411,,"Amsterdam, Meidoornplein",52.3874485,4.9113855,1,,,0,,
stoparea:GVB:01417,,"Amsterdam, Johan v.Hasseltweg",52.387882,4.9231615,1,,,0,,
stoparea:GVB:01420,,"Amsterdam, Fluitschipstraat",52.4037035,4.9160965,1,,,0,,
stoparea:GVB:01433,,"Amsterdam, Lange Vonder",52.4218905,4.8963,1,,,0,,
stoparea:GVB:01435,,"Amsterdam, P.A. v. Heijningestraat",52.422084,4.899569,1,,,0,,
stoparea:GVB:02013,,"Amsterdam, Oderweg",52.3901465,4.8208645,1,,,0,,
stoparea:GVB:02014,,"Amsterdam, Kapoeasweg",52.3901375,4.827475,1,,,0,,
stoparea:GVB:02015,,"Amsterdam, Kastrupstraat",52.3901465,4.833263,1,,,0,,
stoparea:GVB:02017,,"Amsterdam, Oostzaanstraat",52.39375575,4.874211,1,,,0,,
stoparea:GVB:02018,,"Amsterdam, Koivistokade",52.3979005,4.8755695,1,,,0,,
stoparea:GVB:02043,,"Amsterdam, Nieuwe Hemweg",52.4013775,4.8500355,1,,,0,,
stoparea:GVB:02060,,"Amsterdam, Spaarndammerdijk",52.392503,4.8612205,1,,,0,,
stoparea:GVB:02064,,"Amsterdam, Kabelweg",52.39227475,4.84782075,1,,,0,,
stoparea:GVB:02066,,"Amsterdam, La Guardiaweg",52.3917115,4.840222,1,,,0,,
stoparea:GVB:02086,,"Amsterdam, Solebaystraat",52.3846635,4.8556725,1,,,0,,
stoparea:GVB:02088,,"Amsterdam, Vredenhof",52.385236,4.863084,1,,,0,,
stoparea:GVB:02102,,"Amsterdam, Spaarndammerstraat",52.3914475,4.87824075,1,,,0,,
stoparea:GVB:02104,,"Amsterdam, Houtmankade",52.3909635,4.8833845,1,,,0,,
stoparea:GVB:02106,,"Amsterdam, Assendelftstraat",52.389119,4.8796375,1,,,0,,
stoparea:GVB:02110,,"Amsterdam, Nassauplein",52.385347,4.88148,1,,,0,,
stoparea:GVB:02113,,"Amsterdam, Haarlemmerplein",52.385001,4.8835625,1,,,0,,
stoparea:GVB:02115,,"Amsterdam, Nw. Willemsstraat",52.381215,4.8808735,1,,,0,,
stoparea:GVB:02120,,"Amsterdam, Marnixplein",52.3785085,4.8790065,1,,,0,,
stoparea:GVB:02125,,"Amsterdam, Bloemgracht",52.374334,4.876451,1,,,0,,
stoparea:GVB:02127,,"Amsterdam, Rozengracht",52.3722905,4.87622875,1,,,0,,
stoparea:GVB:02128,,"Amsterdam, G. v.Ledenberchstraat",52.37491325,4.871734,1,,,0,,
stoparea:GVB:02132,,"Amsterdam, Fred. Hendrikplants.",52.378647,4.87512833333333,1,,,0,,
stoparea:GVB:02137,,"Amsterdam, Kostverlorenstraat",52.3796025,4.87172,1,,,0,,
stoparea:GVB:02139,,"Amsterdam, Van Beuningenplein",52.3812985,4.8711205,1,,,0,,
stoparea:GVB:02145,,"Amsterdam, Van Hallstraat",52.383642,4.87019433333333,1,,,0,,
stoparea:GVB:02146,,"Amsterdam, Van L.Stirumstraat",52.385463,4.8749715,1,,,0,,
stoparea:GVB:02148,,"Amsterdam, Van L.Stirumstraat",52.384349,4.8750355,1,,,0,,
stoparea:GVB:02150,,"Amsterdam, De Wittenkade",52.3831805,4.8770615,1,,,0,,
stoparea:GVB:02152,,"Amsterdam, Nassaukade",52.381077,4.8791345,1,,,0,,
stoparea:GVB:02154,,"Amsterdam, De Clercqstraat",52.3709215,4.87040025,1,,,0,,
stoparea:GVB:02155,,"Amsterdam, Willem de Zwijgerlaan",52.3705495,4.863925,1,,,0,,
stoparea:GVB:02157,,"Amsterdam, Adm. de Ruijterweg",52.3714785,4.85964116666667,1,,,0,,
stoparea:GVB:02164,,"Amsterdam, De Rijpstraat",52.377254,4.857766,1,,,0,,
stoparea:GVB:02166,,"Amsterdam, Bos en Lommerweg",52.380625,4.85454625,1,,,0,,
stoparea:GVB:02169,,"Amsterdam, Wiltzanghlaan",52.382483,4.8513955,1,,,0,,
stoparea:GVB:02172,,"Amsterdam, Molenwerf",52.386204,4.845526,1,,,0,,
stoparea:GVB:02174,,"Amsterdam, Molenwerf",52.386011,4.846469,1,,,0,,
stoparea:GVB:02182,,"Amsterdam, Markthallen",52.3757165,4.866809,1,,,0,,
stoparea:GVB:02184,,"Amsterdam, Jan v.Galenstraat",52.3747223333333,4.859167,1,,,0,,
stoparea:GVB:02190,,"Amsterdam, Karel Doormanstraat",52.378895,4.856954,1,,,0,,
stoparea:GVB:02194,,"Amsterdam, Hornhaven",52.3948435,4.808096,1,,,0,,
stoparea:GVB:02200,,"Amsterdam, Pleimuiden",52.391807,4.784873,1,,,0,,
stoparea:GVB:02201,,"Amsterdam, Abberdaan",52.391805,4.780877,1,,,0,,
stoparea:GVB:02252,,"Amsterdam, Zekeringstraat",52.3970425,4.847304,1,,,0,,
stoparea:GVB:02259,,"Amsterdam, Contactweg",52.392055,4.855452,1,,,0,,
stoparea:GVB:02270,,"Amsterdam, Bolstoen",52.391808,4.788575,1,,,0,,
stoparea:GVB:02283,,"Amsterdam, Dynamostraat",52.398632,4.848115,1,,,0,,
stoparea:GVB:02290,,"Amsterdam, Jarmuiden",52.390658,4.790529,1,,,0,,
stoparea:GVB:02291,,"Amsterdam, Bornhout",52.396036,4.794762,1,,,0,,
stoparea:GVB:02294,,"Amsterdam, Station Sloterdijk",52.3882707,4.8387982,1,,,0,,
stoparea:GVB:02296,,"Amsterdam, Isolatorweg",52.39517,4.850588,1,,,0,,
stoparea:GVB:02309,,"Amsterdam, Plesostraat",52.3879175,4.827474,1,,,0,,
stoparea:GVB:02311,,"Amsterdam, Seineweg",52.386429,4.818745,1,,,0,,
stoparea:GVB:02316,,"Amsterdam, Naritaweg",52.387871,4.821452,1,,,0,,
stoparea:GVB:02320,,"Amsterdam, Van Hallstraat",52.385326,4.868231,1,,,0,,
stoparea:GVB:02332,,"Amsterdam, Bornhout",52.395732,4.793311,1,,,0,,
stoparea:GVB:02333,,"Amsterdam, Herwijk",52.39572,4.787288,1,,,0,,
stoparea:GVB:02338,,"Amsterdam, Westpoortweg",52.397303,4.7947595,1,,,0,,
stoparea:GVB:02342,,"Amsterdam, Scharenburg",52.395708,4.779692,1,,,0,,
stoparea:GVB:03003,,"Amsterdam, Postjesweg",52.3650095,4.85919325,1,,,0,,
stoparea:GVB:03005,,"Amsterdam, Van Kinsbergenstraat",52.36833,4.859055,1,,,0,,
stoparea:GVB:03012,,"Amsterdam, Postjesweg",52.3640175,4.852892,1,,,0,,
stoparea:GVB:03023,,"Amsterdam, Marco Polostraat",52.3709155,4.855331,1,,,0,,
stoparea:GVB:03025,,"Amsterdam, Jan v.Galenstraat",52.373213,4.848629,1,,,0,,
stoparea:GVB:03034,,"Amsterdam, Erasmusgracht",52.376441,4.846908,1,,,0,,
stoparea:GVB:03036,,"Amsterdam, Egidiusstraat",52.378963,4.8511295,1,,,0,,
stoparea:GVB:03051,,"Amsterdam, Burg. Eliasstraat",52.3805715,4.826832,1,,,0,,
stoparea:GVB:03053,,"Amsterdam, Burg. Fockstraat",52.379721,4.832233,1,,,0,,
stoparea:GVB:03057,,"Amsterdam, Ant. Moddermanstraat",52.383346,4.8140625,1,,,0,,
stoparea:GVB:03060,,"Amsterdam, Bos en Lommerplein",52.3776753333333,4.846306,1,,,0,,
stoparea:GVB:03068,,"Amsterdam, Adm. Helfrichstraat",52.3693853333333,4.84430733333333,1,,,0,,
stoparea:GVB:03070,,"Amsterdam, Jan Voermanstraat",52.369646,4.8382035,1,,,0,,
stoparea:GVB:03071,,"Amsterdam, Jan Voermanstraat",52.369489,4.838183,1,,,0,,
stoparea:GVB:03076,,"Amsterdam, Jan Tooropstraat",52.3715695,4.838135,1,,,0,,
stoparea:GVB:03078,,"Amsterdam, Burg. v.d. Pollstraat",52.373552,4.832479,1,,,0,,
stoparea:GVB:03087,,"Amsterdam, Plein '40 - '45",52.3811843333333,4.821476,1,,,0,,
stoparea:GVB:03090,,"Amsterdam, Slotermeerlaan",52.37532975,4.81887675,1,,,0,,
stoparea:GVB:03095,,"Amsterdam, Burg. v. Leeuwenlaan",52.37640525,4.812724,1,,,0,,
stoparea:GVB:03099,,"Amsterdam, Dr. H. Colijnstraat",52.3769415,4.806494,1,,,0,,
stoparea:GVB:03101,,"Amsterdam, Lambertus Zijlplein",52.377267,4.803193,1,,,0,,
stoparea:GVB:03102,,"Amsterdam, Confuciusplein",52.374528,4.811952,1,,,0,,
stoparea:GVB:03104,,"Amsterdam, Dr. H. Colijnstraat",52.3746705,4.80717,1,,,0,,
stoparea:GVB:03106,,"Amsterdam, Troelstralaan",52.37508925,4.801316,1,,,0,,
stoparea:GVB:03107,,"Amsterdam, Willinklaan",52.371024,4.80036,1,,,0,,
stoparea:GVB:03108,,"Amsterdam, Herman Bonpad",52.3684465,4.800725,1,,,0,,
stoparea:GVB:03115,,"Amsterdam, De Sav. Lohmanstraat",52.376165,4.797634,1,,,0,,
stoparea:GVB:03117,,"Amsterdam, Sam van Houtenstraat",52.3792275,4.7979535,1,,,0,,
stoparea:GVB:03121,,"Amsterdam, Aalbersestraat",52.3821725,4.798355,1,,,0,,
stoparea:GVB:03123,,"Amsterdam, Dr. H. Colijnstraat",52.382447,4.805651,1,,,0,,
stoparea:GVB:03131,,"Amsterdam, Lod. v. Deysselstraat",52.377032,4.8195855,1,,,0,,
stoparea:GVB:03145,,"Amsterdam, J. Cabeliaustraat",52.382466,4.804094,1,,,0,,
stoparea:GVB:03150,,"Amsterdam, Mercatorplein",52.3703705,4.8505615,1,,,0,,
stoparea:GVB:03164,,"Amsterdam, Nachtwachtlaan",52.364151,4.8432115,1,,,0,,
stoparea:GVB:03171,,"Amsterdam, Burg. Rendorpstraat",52.374408,4.8272995,1,,,0,,
stoparea:GVB:03176,,"Amsterdam, Sloterpark",52.372948,4.818903,1,,,0,,
stoparea:GVB:03187,,"Amsterdam, Jan Zwanenburghof",52.382834,4.818828,1,,,0,,
stoparea:GVB:03197,,"Amsterdam, W. Schoutenstraat",52.367195,4.852483,1,,,0,,
stoparea:GVB:03202,,"Amsterdam, Jan v.Galenstraat",52.3727034,4.8355382,1,,,0,,
stoparea:GVB:03204,,"Amsterdam, Burg.de Vlugtlaan",52.37929225,4.838168,1,,,0,,
stoparea:GVB:04001,,"Amsterdam, Jan Rebelstraat",52.3617545,4.783651,1,,,0,,
stoparea:GVB:04003,,"Amsterdam, Zuidermolenweg",52.359917,4.781151,1,,,0,,
stoparea:GVB:04008,,"Amsterdam, Dijkgraafplein",52.355506,4.786679,1,,,0,,
stoparea:GVB:04010,,"Amsterdam, Osdorper Ban",52.3600686666667,4.79027066666667,1,,,0,,
stoparea:GVB:04011,,"Amsterdam, Baden Powellweg",52.356522,4.79159533333333,1,,,0,,
stoparea:GVB:04015,,"Amsterdam, Hoekenes",52.35811875,4.79968325,1,,,0,,
stoparea:GVB:04021,,"Amsterdam, Osdorpplein",52.359332,4.80321975,1,,,0,,
stoparea:GVB:04024,,"Amsterdam, Baden Powellweg",52.3623825,4.787775,1,,,0,,
stoparea:GVB:04028,,"Amsterdam, Reimerswaalstraat",52.36107,4.7949425,1,,,0,,
stoparea:GVB:04030,,"Amsterdam, Bullepad",52.362005,4.799511,1,,,0,,
stoparea:GVB:04032,,"Amsterdam, Geer Ban",52.3628715,4.803918,1,,,0,,
stoparea:GVB:04038,,"Amsterdam, Vrijzicht",52.3623795,4.8061045,1,,,0,,
stoparea:GVB:04040,,"Amsterdam, Ruimzicht",52.359645,4.807546,1,,,0,,
stoparea:GVB:04044,,"Amsterdam, Osdorpplein",52.358009,4.805634,1,,,0,,
stoparea:GVB:04045,,"Amsterdam, Osdorpplein",52.358069,4.806881,1,,,0,,
stoparea:GVB:04047,,"Amsterdam, Meer en Vaart",52.35667125,4.80963275,1,,,0,,
stoparea:GVB:04051,,"Amsterdam, C.K. Eloutstraat",52.3544065,4.81153,1,,,0,,
stoparea:GVB:04053,,"Amsterdam, Piet Wiedijkstraat",52.3551755,4.8153585,1,,,0,,
stoparea:GVB:04055,,"Amsterdam, V. M. Broekmanstraat",52.35638875,4.821835,1,,,0,,
stoparea:GVB:04057,,"Amsterdam, Hemsterhuisstraat",52.359148,4.821862,1,,,0,,
stoparea:GVB:04060,,"Amsterdam, Derkinderenstraat",52.3579525,4.839933,1,,,0,,
stoparea:GVB:04062,,"Amsterdam, Johan Huizingalaan",52.35780275,4.82664275,1,,,0,,
stoparea:GVB:04066,,"Amsterdam, Wolbrantskerkweg",52.356846,4.79759,1,,,0,,
stoparea:GVB:04068,,"Amsterdam, Koos Vorrinkweg",52.35291,4.799682,1,,,0,,
stoparea:GVB:04088,,"Amsterdam, Louwesweg",52.3467005,4.8247505,1,,,0,,
stoparea:GVB:04091,,"Amsterdam, Louweshoek",52.346311,4.823119,1,,,0,,
stoparea:GVB:04094,,"Amsterdam, Aletta Jacobslaan",52.34689,4.828769,1,,,0,,
stoparea:GVB:04098,,"Amsterdam, Maassluisstraat",52.3469855,4.838652,1,,,0,,
stoparea:GVB:04100,,"Amsterdam, Naaldwijkstraat",52.3468645,4.8425355,1,,,0,,
stoparea:GVB:04102,,"Amsterdam, Aalsmeerplein",52.3469545,4.8465925,1,,,0,,
stoparea:GVB:04104,,"Amsterdam, Hoofddorpplein",52.3512268,4.8498162,1,,,0,,
stoparea:GVB:04109,,"Amsterdam, Westlandgracht",52.351583,4.845428,1,,,0,,
stoparea:GVB:04111,,"Amsterdam, Delflandlaan",52.351548,4.840805,1,,,0,,
stoparea:GVB:04112,,"Amsterdam, Johan Huizingalaan",52.3491535,4.827464,1,,,0,,
stoparea:GVB:04126,,"Amsterdam, Louis Davidsstraat",52.3531185,4.809962,1,,,0,,
stoparea:GVB:04129,,"Amsterdam, Derkinderenstraat",52.364111,4.839446,1,,,0,,
stoparea:GVB:04133,,"Amsterdam, Robert Fruinlaan",52.3640115,4.8296035,1,,,0,,
stoparea:GVB:04135,,"Amsterdam, Justus Lipsiusstraat",52.3611645,4.827151,1,,,0,,
stoparea:GVB:04137,,"Amsterdam, Cornelis Lelylaan",52.358068,4.832937,1,,,0,,
stoparea:GVB:04140,,"Amsterdam, Sierplein",52.3549725,4.827354,1,,,0,,
stoparea:GVB:04188,,"Amsterdam, Kon. Wilhelminaplein",52.35637,4.838947,1,,,0,,
stoparea:GVB:04208,,"Amsterdam, Jac. Veltmanstraat",52.351534,4.830964,1,,,0,,
stoparea:GVB:04214,,"Amsterdam, Griendstraat",52.358647,4.7796715,1,,,0,,
stoparea:GVB:04234,,"Amsterdam, Maaseikpad",52.3483705,4.816004,1,,,0,,
stoparea:GVB:04266,,"Schiphol, Havenmeesterweg",52.305486,4.758566,1,,,0,,
stoparea:GVB:04267,,"Schiphol, Schiphol Airport/Plaza",52.309131,4.7612195,1,,,0,,
stoparea:GVB:04268,,"Schiphol, Vrachtgebouw /P12",52.304526,4.753829,1,,,0,,
stoparea:GVB:04270,,"Haarlemmermeer, Buitenweg",52.30634,4.758583,1,,,0,,
stoparea:GVB:04271,,"Schiphol, Skyport",52.307018,4.762767,1,,,0,,
stoparea:GVB:04276,,"Amsterdam, Laan v.Vlaanderen",52.346205,4.81606525,1,,,0,,
stoparea:GVB:04278,,"Amsterdam, Kasterleepark",52.3463455,4.8108275,1,,,0,,
stoparea:GVB:04300,,"Haarlemmermeer, Knooppunt Schiphol Nrd",52.322681,4.796313,1,,,0,,
stoparea:GVB:04301,,"Amsterdam, Antwerpenbaan",52.34637,4.816749,1,,,0,,
stoparea:GVB:04302,,"Amsterdam, Antwerpenbaan",52.346226,4.816751,1,,,0,,
stoparea:GVB:04305,,"Amsterdam, Westmallepad",52.347501,4.805287,1,,,0,,
stoparea:GVB:04314,,"Amsterdam, Oudenaardeplantsoen",52.344991,4.8039915,1,,,0,,
stoparea:GVB:04315,,"Amsterdam, Hageland",52.3450055,4.812459,1,,,0,,
stoparea:GVB:04318,,"Amsterdam, Henk Sneevlietweg",52.346737,4.833948,1,,,0,,
stoparea:GVB:04320,,"Amsterdam, Heemstedestraat",52.352015,4.83436,1,,,0,,
stoparea:GVB:04322,,"Amsterdam, Station Lelylaan",52.3571342,4.8345016,1,,,0,,
stoparea:GVB:04324,,"Amsterdam, Postjesweg",52.364469,4.834751,1,,,0,,
stoparea:GVB:04326,,"Amsterdam, Plesmanlaan",52.350582,4.810442,1,,,0,,
stoparea:GVB:04332,,"Amsterdam, Anderlechtlaan",52.335799,4.814625,1,,,0,,
stoparea:GVB:04338,,"Amsterdam, Brusselsingel",52.345012,4.807403,1,,,0,,
stoparea:GVB:04346,,"Schiphol, Schipholgebouw",52.30283,4.749396,1,,,0,,
stoparea:GVB:04372,,"Schiphol, Uiverweg",52.300246,4.743569,1,,,0,,
stoparea:GVB:04375,,"Schiphol, Toekanweg",52.296501,4.740838,1,,,0,,
stoparea:GVB:04379,,"Haarlemmermeer, Knooppunt Schiphol Nrd",52.3227605,4.7933485,1,,,0,,
stoparea:GVB:04381,,"Schiphol, Pelikaanweg",52.29796,4.744672,1,,,0,,
stoparea:GVB:04383,,"Amsterdam, La Meye",52.352995,4.773819,1,,,0,,
stoparea:GVB:04387,,"Amsterdam, Delflandlaan",52.351615,4.838742,1,,,0,,
stoparea:GVB:04390,,"Amsterdam, Presanella",52.351797,4.7768,1,,,0,,
stoparea:GVB:04392,,"Amsterdam, Allenstraat",52.34988,4.781508,1,,,0,,
stoparea:GVB:04394,,"Amsterdam, Ecuplein",52.349243,4.787124,1,,,0,,
stoparea:GVB:04401,,"Amsterdam, Matterhorn",52.35425125,4.774711,1,,,0,,
stoparea:GVB:04403,,"Amsterdam, Pilatus",52.3529295,4.776821,1,,,0,,
stoparea:GVB:04405,,"Amsterdam, Inaristraat",52.350334,4.7832855,1,,,0,,
stoparea:GVB:04407,,"Amsterdam, Ecuplein",52.349758,4.788518,1,,,0,,
stoparea:GVB:04409,,"Amsterdam, Baden Powellweg",52.35099,4.794798,1,,,0,,
stoparea:GVB:04411,,"Amsterdam, Hoekenes",52.352496,4.80222,1,,,0,,
stoparea:GVB:04413,,"Amsterdam, Louis Davidsstraat",52.3538815,4.8088065,1,,,0,,
stoparea:GVB:04418,,"Amsterdam, Oude Haagseweg",52.3337435,4.810522,1,,,0,,
stoparea:GVB:04420,,"Badhoevedorp, Koekoekslaan",52.329188,4.80249,1,,,0,,
stoparea:GVB:04431,,"Amsterdam, Dokter Meurerlaan",52.366749,4.806341,1,,,0,,
stoparea:GVB:04432,,"Amsterdam, Oeverpad",52.364701,4.8048485,1,,,0,,
stoparea:GVB:05011,,"Amsterdam, Centraal Station",52.378106,4.899215,1,,,0,,
stoparea:GVB:05022,,"Amsterdam, Centraal Station",52.377718,4.901041,1,,,0,,
stoparea:GVB:05025,,"Amsterdam, Centraal Station",52.3778376,4.8977616,1,,,0,,
stoparea:GVB:05031,,"Amsterdam, Dam",52.3741675,4.894486,1,,,0,,
stoparea:GVB:05035,,"Amsterdam, Spui",52.3696235,4.892202,1,,,0,,
stoparea:GVB:05046,,"Amsterdam, Rembrandtplein",52.366245,4.8966515,1,,,0,,
stoparea:GVB:05048,,"Amsterdam, Mr. Visserplein",52.367801,4.9057525,1,,,0,,
stoparea:GVB:05055,,"Amsterdam, Dam",52.3732945714286,4.89079528571429,1,,,0,,
stoparea:GVB:05061,,"Amsterdam, Spui",52.369212,4.8892915,1,,,0,,
stoparea:GVB:05069,,"Amsterdam, Nieuwezijds Kolk",52.376019,4.893283,1,,,0,,
stoparea:GVB:05073,,"Amsterdam, Westermarkt",52.3740385,4.8840395,1,,,0,,
stoparea:GVB:05079,,"Amsterdam, Buiten Oranjestraat",52.383213,4.8879375,1,,,0,,
stoparea:GVB:05081,,"Amsterdam, Buiten Brouwersstraat",52.3815875,4.8914295,1,,,0,,
stoparea:GVB:05090,,"Amsterdam, Westerdoksdijk",52.3850325,4.8931755,1,,,0,,
stoparea:GVB:05092,,"Amsterdam, Barentszplein",52.3891965,4.891579,1,,,0,,
stoparea:GVB:05094,,"Amsterdam, Zoutkeetsgracht",52.388085,4.884871,1,,,0,,
stoparea:GVB:05095,,"Amsterdam, Centraal Station",52.3795514285714,4.90103957142857,1,,,0,,
stoparea:GVB:05096,,"Amsterdam, Centraal Station",52.379675,4.900491,1,,,0,,
stoparea:GVB:05113,,"Amsterdam, Centraal Station",52.376878,4.90011,1,,,0,,
stoparea:GVB:06001,,"Amsterdam, Surinameplein",52.358092,4.85183933333333,1,,,0,,
stoparea:GVB:06010,,"Amsterdam, Corantijnstraat",52.361559,4.853278,1,,,0,,
stoparea:GVB:06016,,"Amsterdam, J.P. Heijestraat",52.3648005,4.862657,1,,,0,,
stoparea:GVB:06019,,"Amsterdam, Ten Katestraat",52.365977,4.8675545,1,,,0,,
stoparea:GVB:06021,,"Amsterdam, Bilderdijkstraat",52.367244,4.8721535,1,,,0,,
stoparea:GVB:06027,,"Amsterdam, Elandsgracht",52.3689055,4.877611,1,,,0,,
stoparea:GVB:06043,,"Amsterdam, Overtoom",52.3628735,4.8746965,1,,,0,,
stoparea:GVB:06048,,"Amsterdam, J.P. Heijestraat",52.360462,4.866283,1,,,0,,
stoparea:GVB:06051,,"Amsterdam, Nassaukade",52.364394,4.878636,1,,,0,,
stoparea:GVB:06055,,"Amsterdam, Leidseplein",52.362542,4.880712,1,,,0,,
stoparea:GVB:06056,,"Amsterdam, Leidseplein",52.363175,4.879501,1,,,0,,
stoparea:GVB:06057,,"Amsterdam, Stadhouderskade",52.363069,4.879884,1,,,0,,
stoparea:GVB:06058,,"Amsterdam, Stadhouderskade",52.362159,4.881363,1,,,0,,
stoparea:GVB:06059,,"Amsterdam, Spiegelgracht",52.3608895,4.887264,1,,,0,,
stoparea:GVB:06061,,"Amsterdam, Leidseplein",52.363604,4.8825905,1,,,0,,
stoparea:GVB:06071,,"Amsterdam, Prinsengracht",52.3650255,4.8844645,1,,,0,,
stoparea:GVB:06073,,"Amsterdam, Keizersgracht",52.365964,4.886451,1,,,0,,
stoparea:GVB:06075,,"Amsterdam, Koningsplein",52.367013,4.8890005,1,,,0,,
stoparea:GVB:06081,,"Amsterdam, Rhijnvis Feithstraat",52.3589465,4.8600325,1,,,0,,
stoparea:GVB:07002,,"Amsterdam, Van Baerlestraat",52.3584875,4.8787805,1,,,0,,
stoparea:GVB:07006,,"Amsterdam, Museumplein",52.3563065,4.8795025,1,,,0,,
stoparea:GVB:07012,,"Amsterdam, Amstelpark",52.331682,4.889962,1,,,0,,
stoparea:GVB:07014,,"Amsterdam, Kastelenstraat",52.326011,4.8795005,1,,,0,,
stoparea:GVB:07015,,"Amsterdam, Roelof Hartplein",52.3528426666667,4.88232966666667,1,,,0,,
stoparea:GVB:07019,,"Amsterdam, Ruysdaelstraat",52.3544925,4.885714,1,,,0,,
stoparea:GVB:07027,,"Amsterdam, Corn. Schuytstraat",52.35601,4.870695,1,,,0,,
stoparea:GVB:07031,,"Amsterdam, Valeriusplein",52.353255,4.8635055,1,,,0,,
stoparea:GVB:07033,,"Amsterdam, Amstelveenseweg",52.3513933333333,4.85654833333333,1,,,0,,
stoparea:GVB:07044,,"Amsterdam, Haarlemmermeerstraat",52.355245,4.850337,1,,,0,,
stoparea:GVB:07056,,"Amsterdam, Haarl'meerstation",52.3490963333333,4.8573855,1,,,0,,
stoparea:GVB:07065,,"Amsterdam, Valeriusplein",52.3517365,4.8646165,1,,,0,,
stoparea:GVB:07069,,"Amsterdam, Emmastraat",52.3530715,4.8698995,1,,,0,,
stoparea:GVB:07073,,"Amsterdam, Jac. Obrechtstraat",52.354803,4.876265,1,,,0,,
stoparea:GVB:07083,,"Amsterdam, Gerrit v.d. Veenstraat",52.349037,4.877278,1,,,0,,
stoparea:GVB:07087,,"Amsterdam, Stadionweg",52.34691725,4.877071,1,,,0,,
stoparea:GVB:07091,,"Amsterdam, Minervaplein",52.346733,4.87252,1,,,0,,
stoparea:GVB:07097,,"Amsterdam, Olympiaplein",52.346333,4.866207,1,,,0,,
stoparea:GVB:07108,,"Amsterdam, Olympiaweg",52.34527,4.858537,1,,,0,,
stoparea:GVB:07109,,"Amsterdam, Oldenaller",52.332027,4.86366,1,,,0,,
stoparea:GVB:07110,,"Amsterdam, Lex van Deldenbrug",52.334942,4.872708,1,,,0,,
stoparea:GVB:07111,,"Amsterdam, Lex van Deldenbrug",52.335034,4.873059,1,,,0,,
stoparea:GVB:07121,,"Amsterdam, Olympisch Stadion",52.343928,4.856902,1,,,0,,
stoparea:GVB:07122,,"Amsterdam, Gelderlandplein Nrd.",52.3321095,4.876504,1,,,0,,
stoparea:GVB:07130,,"Amsterdam, Pr. Irenestraat",52.3425265,4.8682615,1,,,0,,
stoparea:GVB:07137,,"Amsterdam, Egelenburg",52.328693,4.861881,1,,,0,,
stoparea:GVB:07150,,"Amsterdam, Europaboulevard",52.3345935,4.889922,1,,,0,,
stoparea:GVB:07157,,"Amsterdam, Van Heenvlietlaan",52.3248785,4.882667,1,,,0,,
stoparea:GVB:07161,,"Amsterdam, Backershagen",52.324805,4.877006,1,,,0,,
stoparea:GVB:07164,,"Amsterdam, Bolestein",52.325089,4.859767,1,,,0,,
stoparea:GVB:07166,,"Amsterdam, Noordhollandstraat",52.32362,4.865006,1,,,0,,
stoparea:GVB:07168,,"Amsterdam, V. d. Boechorststraat",52.323613,4.861369,1,,,0,,
stoparea:GVB:07170,,"Amsterdam, Van Nijenrodeweg",52.3277935,4.8688595,1,,,0,,
stoparea:GVB:07186,,"Amsterdam, Pr. Irenestraat",52.342865,4.8767765,1,,,0,,
stoparea:GVB:07191,,"Amsterdam, Station Zuid",52.34081275,4.87357525,1,,,0,,
stoparea:GVB:07195,,"Amsterdam, W. v.Weldammelaan",52.335042,4.876947,1,,,0,,
stoparea:GVB:07200,,"Amsterdam, Gustav Mahlerplein",52.336609,4.873628,1,,,0,,
stoparea:GVB:07205,,"Amsterdam, IJsbaanpad",52.3411,4.857647,1,,,0,,
stoparea:GVB:07220,,"Amsterdam, Van Nijenrodeweg",52.326759,4.857547,1,,,0,,
stoparea:GVB:07247,,"Amsterdam, Hogewerf",52.3343815,4.8791555,1,,,0,,
stoparea:GVB:07258,,"Amsterdam, Drentepark",52.33611,4.889362,1,,,0,,
stoparea:GVB:07270,,"Amsterdam, Parnassusweg",52.33812,4.868702,1,,,0,,
stoparea:GVB:07299,,"Amsterdam, Gelderlandplein Oost",52.330855,4.879482,1,,,0,,
stoparea:GVB:07301,,"Amsterdam, Gelderlandplein NO",52.331888,4.879213,1,,,0,,
stoparea:GVB:07303,,"Amsterdam, VU medisch centrum",52.3351715,4.860513,1,,,0,,
stoparea:GVB:07309,,"Amsterdam, Apollolaan",52.348163,4.8819915,1,,,0,,
stoparea:GVB:07311,,"Amsterdam, Ruysdaelkade",52.360271,4.88661,1,,,0,,
stoparea:GVB:07323,,"Amsterdam, Rijksmuseum",52.35997,4.8834355,1,,,0,,
stoparea:GVB:07331,,"Amsterdam, Bouvigne",52.3279945,4.883028,1,,,0,,
stoparea:GVB:07339,,"Amsterdam, Nieuw Herlaer",52.325966,4.890085,1,,,0,,
stoparea:GVB:07342,,"Amsterdam, Amstelveenseweg",52.338315,4.85743475,1,,,0,,
stoparea:GVB:07400,,"Amsterdam, Overamstel",52.3316716666667,4.917546,1,,,0,,
stoparea:GVB:07404,,"Amsterdam, Station RAI",52.337331,4.8901225,1,,,0,,
stoparea:GVB:07408,,"Amsterdam, Station Zuid",52.3391863333333,4.87452233333333,1,,,0,,
stoparea:GVB:07412,,"Amsterdam, De Boelelaan/VU",52.334792625,4.867972625,1,,,0,,
stoparea:GVB:07416,,"Amsterdam, A.J. Ernststraat",52.3316881666667,4.8691515,1,,,0,,
stoparea:GVB:07420,,"Amsterdam, Van Boshuizenstraat",52.3249676,4.868948,1,,,0,,
stoparea:GVB:07424,,"Amstelveen, Uilenstede",52.32167,4.86915833333333,1,,,0,,
stoparea:GVB:07428,,"Amstelveen, Kronenburg",52.316423,4.8703535,1,,,0,,
stoparea:GVB:07432,,"Amstelveen, Zonnestein",52.3122518333333,4.87222033333333,1,,,0,,
stoparea:GVB:07436,,"Amstelveen, Onderuit",52.3080556,4.8725384,1,,,0,,
stoparea:GVB:07440,,"Amstelveen, Oranjebaan",52.3031371666667,4.87192283333333,1,,,0,,
stoparea:GVB:07445,,"Amstelveen, Binnenhof",52.301242,4.867512,1,,,0,,
stoparea:GVB:07450,,"Amstelveen, Amstelveen Centrum",52.2999495,4.869851,1,,,0,,
stoparea:GVB:07454,,"Amstelveen, Ouderkerkerlaan",52.296272,4.8675635,1,,,0,,
stoparea:GVB:07458,,"Amstelveen, Sportlaan",52.2907385,4.864066,1,,,0,,
stoparea:GVB:07462,,"Amstelveen, Marne",52.2869785,4.8613695,1,,,0,,
stoparea:GVB:07466,,"Amstelveen, Gondel",52.2845155,4.8593325,1,,,0,,
stoparea:GVB:07470,,"Amstelveen, Meent",52.281077,4.857197,1,,,0,,
stoparea:GVB:07474,,"Amstelveen, Brink",52.280554,4.8517735,1,,,0,,
stoparea:GVB:07478,,"Amstelveen, Poortwachter",52.2832305,4.845469,1,,,0,,
stoparea:GVB:07495,,"Amsterdam, Amstelveenseweg",52.339123,4.858749,1,,,0,,
stoparea:GVB:07496,,"Amstelveen, Spinnerij",52.284222,4.838247,1,,,0,,
stoparea:GVB:07498,,"Amstelveen, Sacharovlaan",52.2823705,4.8325395,1,,,0,,
stoparea:GVB:07500,,"Amstelveen, Westwijk",52.274543,4.830755,1,,,0,,
stoparea:GVB:07530,,"Amstelveen, Stadstuinen",52.301996,4.8683245,1,,,0,,
stoparea:GVB:07532,,"Amstelveen, Binnenhof",52.3013895,4.8632955,1,,,0,,
stoparea:GVB:07535,,"Amstelveen, A'veen Busstation",52.30233,4.857427,1,,,0,,
stoparea:GVB:08003,,"Amsterdam, Piet Heinkade",52.377433,4.912719,1,,,0,,
stoparea:GVB:08005,,"Amsterdam, Kattenburg",52.3762995,4.921594,1,,,0,,
stoparea:GVB:08007,,"Amsterdam, Bob Haarmslaan",52.368766,4.96921,1,,,0,,
stoparea:GVB:08009,,"Amsterdam, Bob Haarmslaan",52.36915,4.968589,1,,,0,,
stoparea:GVB:08011,,"Amsterdam, C. van Eesterenlaan",52.3734526666667,4.93850866666667,1,,,0,,
stoparea:GVB:08013,,"Amsterdam, Azartplein",52.376693,4.937348,1,,,0,,
stoparea:GVB:08021,,"Amsterdam, Bob Haarmslaan",52.369088,4.968942,1,,,0,,
stoparea:GVB:08022,,"Amsterdam, Bob Haarmslaan",52.370019,4.96792,1,,,0,,
stoparea:GVB:08023,,"Amsterdam, Wittenburgergracht",52.3692395,4.9203835,1,,,0,,
stoparea:GVB:08025,,"Amsterdam, Kattenburgerplein",52.37067,4.9161835,1,,,0,,
stoparea:GVB:08027,,"Amsterdam, Kadijksplein",52.37087,4.913421,1,,,0,,
stoparea:GVB:08029,,"Amsterdam, Prins Hendrikkade",52.375053,4.904242,1,,,0,,
stoparea:GVB:08032,,"Amsterdam, Kattenburgerstraat",52.3728415,4.9187745,1,,,0,,
stoparea:GVB:08036,,"Amsterdam, Borneolaan",52.372046,4.9384595,1,,,0,,
stoparea:GVB:08042,,"Amsterdam, Artis",52.36665,4.9111095,1,,,0,,
stoparea:GVB:08044,,"Amsterdam, Flevopark",52.365191,4.95117,1,,,0,,
stoparea:GVB:08045,,"Amsterdam, Plantage Lepellaan",52.36522,4.915287,1,,,0,,
stoparea:GVB:08048,,"Amsterdam, C.v. Eesterenlaan",52.37382,4.938074,1,,,0,,
stoparea:GVB:08049,,"Amsterdam, Alexanderplein",52.36354125,4.91921,1,,,0,,
stoparea:GVB:08051,,"Amsterdam, K. 's-Gravesandestr.",52.362422,4.91465633333333,1,,,0,,
stoparea:GVB:08058,,"Amsterdam, Veelaan",52.3680325,4.939528,1,,,0,,
stoparea:GVB:08060,,"Amsterdam, Keizersgracht",52.363807,4.8983085,1,,,0,,
stoparea:GVB:08062,,"Amsterdam, Prinsengracht",52.362111,4.8989655,1,,,0,,
stoparea:GVB:08064,,"Amsterdam, Frederiksplein",52.35973425,4.89851475,1,,,0,,
stoparea:GVB:08072,,"Amsterdam, Weteringcircuit",52.35958775,4.8913925,1,,,0,,
stoparea:GVB:08083,,"Amsterdam, Jan Schaeferbrug",52.3763315,4.92173325,1,,,0,,
stoparea:GVB:08086,,"Amsterdam, Keizersgracht",52.364363,4.892532,1,,,0,,
stoparea:GVB:08097,,"Amsterdam, 1e v.Swindenstraat",52.361897,4.923991,1,,,0,,
stoparea:GVB:08103,,"Amsterdam, Pontanusstraat",52.3659245,4.927664,1,,,0,,
stoparea:GVB:08107,,"Amsterdam, Zeeburgerdijk",52.365809,4.932694,1,,,0,,
stoparea:GVB:08110,,"Amsterdam, Javaplein",52.36407625,4.93896225,1,,,0,,
stoparea:GVB:08119,,"Amsterdam, Insulindeweg",52.364724,4.947644,1,,,0,,
stoparea:GVB:08121,,"Amsterdam, Soembawastraat",52.3621975,4.94369,1,,,0,,
stoparea:GVB:08129,,"Amsterdam, Molukkenstraat",52.36165,4.93977925,1,,,0,,
stoparea:GVB:08131,,"Amsterdam, Valentijnkade",52.358919,4.9407645,1,,,0,,
stoparea:GVB:08133,,"Amsterdam, Zuiderzeeweg",52.371636,4.9619395,1,,,0,,
stoparea:GVB:08174,,"Amsterdam, Weesperplein",52.362078,4.90729,1,,,0,,
stoparea:GVB:08183,,"Amsterdam, Het Funen",52.367471,4.931238,1,,,0,,
stoparea:GVB:08196,,"Amsterdam, Oostenburgergracht",52.3680135,4.923964,1,,,0,,
stoparea:GVB:08204,,"Amsterdam, Oostelijke Handelskade",52.375229,4.930483,1,,,0,,
stoparea:GVB:08206,,"Amsterdam, Oostelijke Handelskade",52.375068,4.930778,1,,,0,,
stoparea:GVB:08207,,"Amsterdam, Levantplein",52.3770945,4.942623,1,,,0,,
stoparea:GVB:08209,,"Amsterdam, KNSM-laan",52.377076,4.946016,1,,,0,,
stoparea:GVB:08216,,"Amsterdam, Borneolaan",52.370734,4.9384875,1,,,0,,
stoparea:GVB:08221,,"Amsterdam, Tosaristraat",52.379749,4.92346,1,,,0,,
stoparea:GVB:08222,,"Amsterdam, Peter Martensstraat",52.3486845,5.014059,1,,,0,,
stoparea:GVB:08224,,"Amsterdam, Tosaristraat",52.379415,4.9230885,1,,,0,,
stoparea:GVB:08225,,"Amsterdam, Majanggracht",52.3788635,4.93035,1,,,0,,
stoparea:GVB:08232,,"Amsterdam, IJ tunnel",52.37227,4.909559,1,,,0,,
stoparea:GVB:08234,,"Amsterdam, Muziekgeb. Bimhuis",52.3772365,4.91303,1,,,0,,
stoparea:GVB:08238,,"Amsterdam, Rietlandpark",52.37302975,4.9342205,1,,,0,,
stoparea:GVB:08244,,"Amsterdam, Steigereiland",52.3629675,4.980481,1,,,0,,
stoparea:GVB:08246,,"Amsterdam, Vennepluimstraat",52.357583,4.990835,1,,,0,,
stoparea:GVB:08248,,"Amsterdam, Diemerparklaan",52.355225,4.99523,1,,,0,,
stoparea:GVB:08250,,"Amsterdam, Lumierestraat",52.3528735,4.999669,1,,,0,,
stoparea:GVB:08252,,"Amsterdam, IJburg",52.350954,5.004324,1,,,0,,
stoparea:GVB:08254,,"Amsterdam, Hoogte Kadijk",52.3667525,4.924521,1,,,0,,
stoparea:GVB:08256,,"Amsterdam, 1e Coehoornstraat",52.3682025,4.9263485,1,,,0,,
stoparea:GVB:08258,,"Amsterdam, 1e Leeghwaterstraat",52.3702825,4.9297405,1,,,0,,
stoparea:GVB:08268,,"Amsterdam, Steigereiland",52.3630265,4.9806935,1,,,0,,
stoparea:GVB:08270,,"Amsterdam, Diemerparklaan",52.3552385,4.99523,1,,,0,,
stoparea:GVB:08288,,"Amsterdam, R.J.H. Fortuynplein",52.372261,4.94671,1,,,0,,
stoparea:GVB:08292,,"Amsterdam, Zeeburgerdijk",52.365493,4.9394945,1,,,0,,
stoparea:GVB:08299,,"Amsterdam, P.Oosterhuisstraat",52.3519525,5.007434,1,,,0,,
stoparea:GVB:09001,,"Amsterdam, Dintelstraat",52.341919,4.8932665,1,,,0,,
stoparea:GVB:09004,,"Amsterdam, Europaplein",52.34018,4.892222,1,,,0,,
stoparea:GVB:09020,,"Amsterdam, Wibautstraat",52.357319,4.909573,1,,,0,,
stoparea:GVB:09023,,"Amsterdam, Camperstraat",52.3583645,4.913613,1,,,0,,
stoparea:GVB:09030,,"Amsterdam, Prins Bernhardplein",52.3489445,4.9179475,1,,,0,,
stoparea:GVB:09048,,"Amsterdam, Victorieplein",52.34660525,4.90558225,1,,,0,,
stoparea:GVB:09060,,"Amsterdam, Waalstraat",52.344568,4.900983,1,,,0,,
stoparea:GVB:09064,,"Amsterdam, Pres. Kennedylaan",52.340912,4.901818,1,,,0,,
stoparea:GVB:09068,,"Amsterdam, Maasstraat",52.3430025,4.8966,1,,,0,,
stoparea:GVB:09070,,"Amsterdam, Scheldestraat",52.34722,4.889568,1,,,0,,
stoparea:GVB:09072,,"Amsterdam, Scheldeplein",52.344147,4.8908495,1,,,0,,
stoparea:GVB:09074,,"Amsterdam, Scheldestraat",52.347371,4.891386,1,,,0,,
stoparea:GVB:09078,,"Amsterdam, Maasstraat",52.3469375,4.8951035,1,,,0,,
stoparea:GVB:09082,,"Amsterdam, Waalstraat",52.3466835,4.9000305,1,,,0,,
stoparea:GVB:09086,,"Amsterdam, Amstelkade",52.3490645,4.9041945,1,,,0,,
stoparea:GVB:09090,,"Amsterdam, Lutmastraat",52.3516625,4.9032195,1,,,0,,
stoparea:GVB:09094,,"Amsterdam, Ceintuurbaan",52.35482475,4.9012365,1,,,0,,
stoparea:GVB:09100,,"Amsterdam, Stadhouderskade",52.3580825,4.89951275,1,,,0,,
stoparea:GVB:09104,,"Amsterdam, Albert Cuypstraat",52.355099,4.8899055,1,,,0,,
stoparea:GVB:09108,,"Amsterdam, 2e v.d.Helststraat",52.3532535,4.894557,1,,,0,,
stoparea:GVB:09110,,"Amsterdam, Ferd. Bolstraat",52.352743,4.8907245,1,,,0,,
stoparea:GVB:09119,,"Amsterdam, Cornelis Troostplein",52.3502345,4.891552,1,,,0,,
stoparea:GVB:09127,,"Amsterdam, Stadhouderskade",52.3577386666667,4.89102333333333,1,,,0,,
stoparea:GVB:09139,,"Amsterdam, Amsteldijk",52.347078,4.9108935,1,,,0,,
stoparea:GVB:09160,,"Amsterdam, Maasstraat",52.340597,4.897419,1,,,0,,
stoparea:GVB:09175,,"Amsterdam, James Wattstraat",52.3513465,4.923023,1,,,0,,
stoparea:GVB:09177,,"Amsterdam, Krugerplein",52.3530225,4.9207815,1,,,0,,
stoparea:GVB:09180,,"Amsterdam, Wibautstraat",52.3553405,4.9114435,1,,,0,,
stoparea:GVB:09188,,"Amsterdam, Ferd. Bolstraat",52.35799,4.89239,1,,,0,,
stoparea:GVB:09500,,"Amsterdam, Centraal Station",52.377492,4.900779,1,,,0,,
stoparea:GVB:09502,,"Amsterdam, Nieuwmarkt",52.3719355,4.9012655,1,,,0,,
stoparea:GVB:09508,,"Amsterdam, Waterlooplein",52.3674198333333,4.90292516666667,1,,,0,,
stoparea:GVB:09510,,"Amsterdam, Weesperplein",52.3611905,4.9079675,1,,,0,,
stoparea:GVB:09512,,"Amsterdam, Wibautstraat",52.354314,4.9121295,1,,,0,,
stoparea:GVB:09514,,"Amsterdam, Amstelstation",52.346662125,4.91894225,1,,,0,,
stoparea:GVB:09516,,"Amsterdam, Van der Madeweg",52.3296535,4.930328,1,,,0,,
stoparea:GVB:09518,,"Amsterdam, Spaklerweg",52.340045,4.92096175,1,,,0,,
stoparea:GVB:09520,,"Amsterdam, Strandvliet",52.318459,4.941443,1,,,0,,
stoparea:GVB:09522,,"Amsterdam, Station Bijlmer ArenA",52.3116338333333,4.94729133333333,1,,,0,,
stoparea:GVB:09524,,"Amsterdam, Bullewijk",52.3066755,4.952206,1,,,0,,
stoparea:GVB:09526,,"Amsterdam, Station Holendrecht",52.29761075,4.959408,1,,,0,,
stoparea:GVB:09528,,"Amsterdam, Reigersbos",52.2962355,4.97390475,1,,,0,,
stoparea:GVB:09530,,"Amsterdam, Gein",52.296337,4.98911625,1,,,0,,
stoparea:GVB:09540,,"Amsterdam, Venserpolder",52.3267595,4.946347,1,,,0,,
stoparea:GVB:09542,,"Diemen, Station Diemen-Zuid",52.330595,4.9566845,1,,,0,,
stoparea:GVB:09544,,"Amsterdam, Verrijn Stuartweg",52.328627,4.9667415,1,,,0,,
stoparea:GVB:09546,,"Amsterdam, Station Ganzenhoef",52.3231956666667,4.97364266666667,1,,,0,,
stoparea:GVB:09548,,"Amsterdam, Kraaienneststation",52.3164104,4.9800036,1,,,0,,
stoparea:GVB:09550,,"Amsterdam, Gaasperplas",52.3110922857143,4.98497757142857,1,,,0,,
stoparea:GVB:09551,,"Duivendrecht, Station Duivendrecht",52.3233685,4.93664125,1,,,0,,
stoparea:GVB:09901,,"Amsterdam, Distelweg",52.395773,4.896479,1,,,0,,
stoparea:GVB:09902,,"Amsterdam, NDSM",52.400939,4.891735,1,,,0,,
stoparea:GVB:09903,,"Amsterdam, Centraal Station",52.3802393333333,4.900744,1,,,0,,
stoparea:GVB:09904,,"Amsterdam, Westerdoksdijk",52.388136,4.892597,1,,,0,,
stoparea:GVB:09911,,"Amsterdam, IJplein",52.381774,4.908281,1,,,0,,
stoparea:GVB:09915,,"Amsterdam, Zamenhofstraat",52.384993,4.931366,1,,,0,,
stoparea:GVB:09918,,"Velzen, Velsen Noord",52.465956,4.632572,1,,,0,,
stoparea:GVB:09919,,"Velzen, Velsen Zuid",52.462601,4.632188,1,,,0,,
stoparea:GVB:09920,,"Assendelft, Assendelft",52.434711,4.725189,1,,,0,,
stoparea:GVB:09921,,"Spaarndam, Spaarndam",52.431453,4.724561,1,,,0,,
stoparea:GVB:09922,,"Amsterdam, Zaandam",52.421329,4.826383,1,,,0,,
stoparea:GVB:09923,,"Amsterdam, Hempontplein",52.418051,4.826983,1,,,0,,
stoparea:GVB:09925,,"Amsterdam, Azartplein",52.377754,4.937521,1,,,0,,
